[{"name": "Massy - Palaiseau", "provider_id": 1, "line_id": null, "location_id": 33457, "mode": "Train", "lat": 48.725519074370794, "lon": 2.258767728257733, "lines": [{"name": "V", "mode": "Transilien", "background_color": "9f9825", "text_color": "ffffff"}, {"name": "C", "mode": "RER", "background_color": "ffcc30", "text_color": "000000"}, {"name": "B", "mode": "RER", "background_color": "5091cb", "text_color": "ffffff"}]}, {"name": "Massy - Palaiseau", "provider_id": 59, "line_id": null, "location_id": 9314, "mode": "Train", "lat": 48.725519074370794, "lon": 2.258767728257733, "lines": [{"name": "V", "mode": "Transilien", "background_color": "9f9825", "text_color": "ffffff"}, {"name": "C", "mode": "RER", "background_color": "ffcc30", "text_color": "000000"}, {"name": "B", "mode": "RER", "background_color": "5091cb", "text_color": "ffffff"}]}, {"name": "Massy - Palaiseau", "provider_id": 59, "line_id": null, "location_id": 9315, "mode": "Train", "lat": 48.725519074370794, "lon": 2.258767728257733, "lines": [{"name": "V", "mode": "Transilien", "background_color": "9f9825", "text_color": "ffffff"}, {"name": "C", "mode": "RER", "background_color": "ffcc30", "text_color": "000000"}, {"name": "B", "mode": "RER", "background_color": "5091cb", "text_color": "ffffff"}]}, {"name": "Issy - Val de Seine", "provider_id": 59, "line_id": 12, "location_id": 113, "mode": "Tramway", "lat": 48.829712261592896, "lon": 2.263048600707745, "lines": []}, {"name": "Issy - Val de Seine", "provider_id": 59, "line_id": 12, "location_id": 32981, "mode": "Tramway", "lat": 48.829712261592896, "lon": 2.263048600707745, "lines": []}, {"name": "Issy - Val de Seine", "provider_id": 1, "line_id": null, "location_id": 32833, "mode": "Train", "lat": 48.83050964570218, "lon": 2.2640113460455353, "lines": [{"name": "C", "mode": "RER", "background_color": "ffcc30", "text_color": "000000"}]}, {"name": "Orry-la-Ville - Coye", "provider_id": 1, "line_id": null, "location_id": 521103, "mode": "Train", "lat": 49.1384054614544, "lon": 2.489862086302069, "lines": [{"name": "D", "mode": "RER", "background_color": "008b5b", "text_color": "ffffff"}]}, {"name": "Noisy-le-Grand - Mont d'Est", "provider_id": 59, "line_id": null, "location_id": 13425, "mode": "Train", "lat": 48.84088525041222, "lon": 2.550026754158765, "lines": [{"name": "A", "mode": "RER", "background_color": "eb2132", "text_color": "ffffff"}]}, {"name": "Épinay-sur-Seine", "provider_id": 59, "line_id": 18, "location_id": 291, "mode": "Tramway", "lat": 48.955209448009775, "lon": 2.3021403301774908, "lines": []}, {"name": "Épinay-sur-Seine", "provider_id": 59, "line_id": 18, "location_id": 33121, "mode": "Tramway", "lat": 48.955209448009775, "lon": 2.3021403301774908, "lines": []}, {"name": "Épinay-sur-Seine", "provider_id": 1, "line_id": null, "location_id": 28260, "mode": "Tramway", "lat": 48.955209448009775, "lon": 2.3021403301774908, "lines": []}, {"name": "Épinay-sur-Seine", "provider_id": 1, "line_id": null, "location_id": 28261, "mode": "Tramway", "lat": 48.955209448009775, "lon": 2.3021403301774908, "lines": []}, {"name": "Épinay - Orgemont", "provider_id": 59, "line_id": 18, "location_id": 33070, "mode": "Tramway", "lat": 48.955439639608265, "lon": 2.29537104190974, "lines": []}, {"name": "Épinay - Orgemont", "provider_id": 59, "line_id": 18, "location_id": 33087, "mode": "Tramway", "lat": 48.955439639608265, "lon": 2.29537104190974, "lines": []}, {"name": "Pierre de Geyter", "provider_id": 59, "line_id": 18, "location_id": 308, "mode": "Tramway", "lat": 48.932008679609794, "lon": 2.352755318497951, "lines": []}, {"name": "Pierre de Geyter", "provider_id": 59, "line_id": 18, "location_id": 33074, "mode": "Tramway", "lat": 48.932008679609794, "lon": 2.352755318497951, "lines": []}, {"name": "Saint-Denis - Porte de Paris", "provider_id": 59, "line_id": 18, "location_id": 284, "mode": "Tramway", "lat": 48.929802682225656, "lon": 2.357259465220399, "lines": []}, {"name": "Saint-Denis - Porte de Paris", "provider_id": 59, "line_id": 11, "location_id": 1040, "mode": "Tramway", "lat": 48.929802682225656, "lon": 2.357259465220399, "lines": []}, {"name": "Saint-Denis - Porte de Paris", "provider_id": 59, "line_id": 11, "location_id": 1041, "mode": "Tramway", "lat": 48.929802682225656, "lon": 2.357259465220399, "lines": []}, {"name": "Villejuif - Louis Aragon", "provider_id": 59, "line_id": 17, "location_id": 1, "mode": "Tramway", "lat": 48.78729408845149, "lon": 2.366943618603153, "lines": []}, {"name": "Saarinen", "provider_id": 59, "line_id": 17, "location_id": 11, "mode": "Tramway", "lat": 48.750206754876366, "lon": 2.3543902148313287, "lines": []}, {"name": "Saarinen", "provider_id": 59, "line_id": 17, "location_id": 32794, "mode": "Tramway", "lat": 48.750206754876366, "lon": 2.3543902148313287, "lines": []}, {"name": "Robert Schuman (Parc Silic Centre)", "provider_id": 59, "line_id": 17, "location_id": 12, "mode": "Tramway", "lat": 48.74661405087589, "lon": 2.352829762636084, "lines": []}, {"name": "Robert Schuman (Parc Silic Centre)", "provider_id": 59, "line_id": 17, "location_id": 32793, "mode": "Tramway", "lat": 48.74661405087589, "lon": 2.352829762636084, "lines": []}, {"name": "Chevilly-Larue", "provider_id": 59, "line_id": 17, "location_id": 7, "mode": "Tramway", "lat": 48.759580097159535, "lon": 2.366381830996237, "lines": []}, {"name": "Chevilly-Larue", "provider_id": 59, "line_id": 17, "location_id": 32798, "mode": "Tramway", "lat": 48.759580097159535, "lon": 2.366381830996237, "lines": []}, {"name": "Porte de Rungis", "provider_id": 59, "line_id": 17, "location_id": 10, "mode": "Tramway", "lat": 48.752572463089244, "lon": 2.3552587047422144, "lines": []}, {"name": "Porte de Rungis", "provider_id": 59, "line_id": 17, "location_id": 32795, "mode": "Tramway", "lat": 48.752572463089244, "lon": 2.3552587047422144, "lines": []}, {"name": "Porte de l'Essonne", "provider_id": 59, "line_id": 17, "location_id": 32787, "mode": "Tramway", "lat": 48.714478545769936, "lon": 2.3716928226573577, "lines": []}, {"name": "Porte de l'Essonne", "provider_id": 59, "line_id": 17, "location_id": 32821, "mode": "Tramway", "lat": 48.714478545769936, "lon": 2.3716928226573577, "lines": []}, {"name": "Place de la Logistique", "provider_id": 59, "line_id": 17, "location_id": 9, "mode": "Tramway", "lat": 48.75281986849925, "lon": 2.361968341326544, "lines": []}, {"name": "Place de la Logistique", "provider_id": 59, "line_id": 17, "location_id": 32796, "mode": "Tramway", "lat": 48.75281986849925, "lon": 2.361968341326544, "lines": []}, {"name": "Moulin Vert", "provider_id": 59, "line_id": 17, "location_id": 4, "mode": "Tramway", "lat": 48.77205364943949, "lon": 2.3678088376753874, "lines": []}, {"name": "Moulin Vert", "provider_id": 59, "line_id": 17, "location_id": 32801, "mode": "Tramway", "lat": 48.77205364943949, "lon": 2.3678088376753874, "lines": []}, {"name": "Lamartine", "provider_id": 59, "line_id": 17, "location_id": 2, "mode": "Tramway", "lat": 48.78320741202925, "lon": 2.3671565201191918, "lines": []}, {"name": "Lamartine", "provider_id": 59, "line_id": 17, "location_id": 32803, "mode": "Tramway", "lat": 48.78320741202925, "lon": 2.3671565201191918, "lines": []}, {"name": "La Fraternelle", "provider_id": 59, "line_id": 17, "location_id": 13, "mode": "Tramway", "lat": 48.7417028834167, "lon": 2.3527886284443382, "lines": []}, {"name": "La Fraternelle", "provider_id": 59, "line_id": 17, "location_id": 32792, "mode": "Tramway", "lat": 48.7417028834167, "lon": 2.3527886284443382, "lines": []}, {"name": "La Belle Epine", "provider_id": 59, "line_id": 17, "location_id": 8, "mode": "Tramway", "lat": 48.75669000368305, "lon": 2.368375768405828, "lines": []}, {"name": "La Belle Epine", "provider_id": 59, "line_id": 17, "location_id": 32797, "mode": "Tramway", "lat": 48.75669000368305, "lon": 2.368375768405828, "lines": []}, {"name": "Hélène Boucher (Orlytech)", "provider_id": 59, "line_id": 17, "location_id": 3, "mode": "Tramway", "lat": 48.73997617472045, "lon": 2.359500671215542, "lines": []}, {"name": "Hélène Boucher (Orlytech)", "provider_id": 59, "line_id": 17, "location_id": 32802, "mode": "Tramway", "lat": 48.73997617472045, "lon": 2.359500671215542, "lines": []}, {"name": "Domaine Chérioux", "provider_id": 59, "line_id": 17, "location_id": 3, "mode": "Tramway", "lat": 48.77894552667962, "lon": 2.367405534673142, "lines": []}, {"name": "Domaine Chérioux", "provider_id": 59, "line_id": 17, "location_id": 32802, "mode": "Tramway", "lat": 48.77894552667962, "lon": 2.367405534673142, "lines": []}, {"name": "Coeur d'Orly", "provider_id": 59, "line_id": 17, "location_id": 17, "mode": "Tramway", "lat": 48.733770186349744, "lon": 2.3713791787961758, "lines": []}, {"name": "Coeur d'Orly", "provider_id": 59, "line_id": 17, "location_id": 32789, "mode": "Tramway", "lat": 48.733770186349744, "lon": 2.3713791787961758, "lines": []}, {"name": "Caroline Aigle (Orlyfret)", "provider_id": 59, "line_id": 17, "location_id": 16, "mode": "Tramway", "lat": 48.73862392202287, "lon": 2.369906513876831, "lines": []}, {"name": "Caroline Aigle (Orlyfret)", "provider_id": 59, "line_id": 17, "location_id": 32790, "mode": "Tramway", "lat": 48.73862392202287, "lon": 2.369906513876831, "lines": []}, {"name": "Bretagne", "provider_id": 59, "line_id": 17, "location_id": 5, "mode": "Tramway", "lat": 48.768200823221925, "lon": 2.3680323834039383, "lines": []}, {"name": "Bretagne", "provider_id": 59, "line_id": 17, "location_id": 32800, "mode": "Tramway", "lat": 48.768200823221925, "lon": 2.3680323834039383, "lines": []}, {"name": "Auguste Perret (Cimetière Parisien)", "provider_id": 59, "line_id": 17, "location_id": 6, "mode": "Tramway", "lat": 48.7633560176435, "lon": 2.3677645181037223, "lines": []}, {"name": "Auguste Perret (Cimetière Parisien)", "provider_id": 59, "line_id": 17, "location_id": 32799, "mode": "Tramway", "lat": 48.7633560176435, "lon": 2.3677645181037223, "lines": []}, {"name": "Aéroport d’Orly (Terminal 4)", "provider_id": 59, "line_id": 17, "location_id": 18, "mode": "Tramway", "lat": 48.72956229858683, "lon": 2.3682619165707335, "lines": []}, {"name": "Aéroport d’Orly (Terminal 4)", "provider_id": 59, "line_id": 17, "location_id": 32788, "mode": "Tramway", "lat": 48.72956229858683, "lon": 2.3682619165707335, "lines": []}, {"name": "Saint-Cyr", "provider_id": 1, "line_id": null, "location_id": 30884, "mode": "Tramway", "lat": 48.799054528094, "lon": 2.0740144811744887, "lines": []}, {"name": "Saint-Germain-en-Laye", "provider_id": 1, "line_id": null, "location_id": 18545, "mode": "Tramway", "lat": 48.901696684619104, "lon": 2.095133840035635, "lines": []}, {"name": "Villa Nova", "provider_id": 221, "line_id": null, "location_id": 3041, "mode": "Câble", "lat": 48.7348106114126, "lon": 2.464883074686691, "lines": []}, {"name": "La Végétale", "provider_id": 221, "line_id": null, "location_id": 3030, "mode": "Câble", "lat": 48.742435009562804, "lon": 2.479505860703993, "lines": []}, {"name": "Valenton", "provider_id": 221, "line_id": null, "location_id": 3020, "mode": "Câble", "lat": 48.74854116808305, "lon": 2.4731341552413033, "lines": []}, {"name": "Limeil-Brévannes", "provider_id": 221, "line_id": null, "location_id": 3010, "mode": "Câble", "lat": 48.753059155389316, "lon": 2.4717487551767543, "lines": []}, {"name": "Pointe du Lac", "provider_id": 221, "line_id": null, "location_id": 3000, "mode": "Câble", "lat": 48.76883991488915, "lon": 2.464785922212251, "lines": []}, {"name": "Évry - Courcouronnes", "provider_id": 1, "line_id": null, "location_id": 33396, "mode": "Tramway", "lat": 48.62493096325922, "lon": 2.425476192791252, "lines": []}, {"name": "Les Portes de Saint-Cyr", "provider_id": 1, "line_id": null, "location_id": 18609, "mode": "Tramway", "lat": 48.806602514116285, "lon": 2.0771552914120655, "lines": []}, {"name": "Épinay-sur-Orge", "provider_id": 1, "line_id": null, "location_id": 21657, "mode": "Tramway", "lat": 48.67058820152859, "lon": 2.3351512518948967, "lines": []}, {"name": "Massy-Palaiseau", "provider_id": 1, "line_id": null, "location_id": 33461, "mode": "Tramway", "lat": 48.72484767215887, "lon": 2.257111857215835, "lines": []}, {"name": "Saint-Cyr", "provider_id": 1, "line_id": null, "location_id": 30881, "mode": "Train", "lat": 48.798774604718346, "lon": 2.072712440765475, "lines": [{"name": "N", "mode": "Transilien", "background_color": "00b297", "text_color": "ffffff"}, {"name": "U", "mode": "Transilien", "background_color": "b6134c", "text_color": "ffffff"}, {"name": "C", "mode": "RER", "background_color": "ffcc30", "text_color": "000000"}]}, {"name": "Saint-Nom-la-Bretèche Forêt de Marly", "provider_id": 1, "line_id": null, "location_id": 15522, "mode": "Train", "lat": 48.86709624082785, "lon": 2.051299627156171, "lines": [{"name": "L", "mode": "Transilien", "background_color": "c4a4cc", "text_color": "000000"}]}, {"name": "Saint-Nom-la-Bretèche Forêt de Marly", "provider_id": 1, "line_id": null, "location_id": 15525, "mode": "Tramway", "lat": 48.86740156343906, "lon": 2.0506737802671156, "lines": []}, {"name": "Traité de Rome", "provider_id": 1, "line_id": null, "location_id": 33394, "mode": "Tramway", "lat": 48.6251300135794, "lon": 2.4073526711363735, "lines": []}, {"name": "Petit Vaux", "provider_id": 1, "line_id": null, "location_id": 33510, "mode": "Tramway", "lat": 48.676579319002606, "lon": 2.332820398541019, "lines": []}, {"name": "Parc du Château", "provider_id": 1, "line_id": null, "location_id": 33521, "mode": "Tramway", "lat": 48.66783428643683, "lon": 2.3553595398099834, "lines": []}, {"name": "Noisy-le-Roi", "provider_id": 1, "line_id": null, "location_id": 18599, "mode": "Tramway", "lat": 48.84126613197106, "lon": 2.061600841472759, "lines": []}, {"name": "Massy Europe", "provider_id": 1, "line_id": null, "location_id": 33460, "mode": "Tramway", "lat": 48.72349961336189, "lon": 2.272629006206348, "lines": []}, {"name": "Mareil-Marly", "provider_id": 1, "line_id": null, "location_id": 18585, "mode": "Tramway", "lat": 48.88104250406464, "lon": 2.079136147795534, "lines": []}, {"name": "Longjumeau", "provider_id": 1, "line_id": null, "location_id": 33475, "mode": "Tramway", "lat": 48.70236857101997, "lon": 2.293931985131875, "lines": []}, {"name": "Lisière Pereire", "provider_id": 1, "line_id": null, "location_id": 18587, "mode": "Tramway", "lat": 48.90320443571814, "lon": 2.0729667082598904, "lines": []}, {"name": "L'Etang - Les Sablons", "provider_id": 1, "line_id": null, "location_id": 18600, "mode": "Tramway", "lat": 48.87229783530707, "lon": 2.0688880875611, "lines": []}, {"name": "Gravigny Balizy", "provider_id": 1, "line_id": null, "location_id": 33509, "mode": "Tramway", "lat": 48.686183368223695, "lon": 2.3172789511051968, "lines": []}, {"name": "Fourqueux - Bel Air", "provider_id": 1, "line_id": null, "location_id": 18586, "mode": "Tramway", "lat": 48.89491677448122, "lon": 2.0700453204929503, "lines": []}, {"name": "Ferme Neuve", "provider_id": 1, "line_id": null, "location_id": 33524, "mode": "Tramway", "lat": 48.652160364337604, "lon": 2.383397100238145, "lines": []}, {"name": "Coteaux de l'Orge", "provider_id": 1, "line_id": null, "location_id": 33522, "mode": "Tramway", "lat": 48.66530998182267, "lon": 2.362662449051002, "lines": []}, {"name": "Chilly-Mazarin", "provider_id": 1, "line_id": null, "location_id": 33491, "mode": "Tramway", "lat": 48.700880135211776, "lon": 2.3070041156291876, "lines": []}, {"name": "Champlan", "provider_id": 1, "line_id": null, "location_id": 33476, "mode": "Tramway", "lat": 48.708006150659436, "lon": 2.280774812226961, "lines": []}, {"name": "Camp des Loges", "provider_id": 1, "line_id": null, "location_id": 18562, "mode": "Tramway", "lat": 48.91396014141979, "lon": 2.081671529816199, "lines": []}, {"name": "Bois de Saint-Eutrope", "provider_id": 1, "line_id": null, "location_id": 33393, "mode": "Tramway", "lat": 48.63410687961818, "lon": 2.3956407718177566, "lines": []}, {"name": "Bois Briard", "provider_id": 1, "line_id": null, "location_id": 33395, "mode": "Tramway", "lat": 48.62197836226692, "lon": 2.415787031555093, "lines": []}, {"name": "Bailly", "provider_id": 1, "line_id": null, "location_id": 18595, "mode": "Tramway", "lat": 48.83682245423416, "lon": 2.074794551248705, "lines": []}, {"name": "Amédée Gordini", "provider_id": 1, "line_id": null, "location_id": 33523, "mode": "Tramway", "lat": 48.65871699239033, "lon": 2.3737611037418866, "lines": []}, {"name": "Allée Royale", "provider_id": 1, "line_id": null, "location_id": 18610, "mode": "Tramway", "lat": 48.814712547027824, "lon": 2.078550694584387, "lines": []}, {"name": "Antony", "provider_id": 59, "line_id": null, "location_id": 14929, "mode": "Métro", "lat": 48.75448290510273, "lon": 2.3007631427666997, "lines": []}, {"name": "Antony", "provider_id": 14, "line_id": null, "location_id": 9393, "mode": "Métro", "lat": 48.75448290510273, "lon": 2.3007631427666997, "lines": []}, {"name": "Filles du Calvaire", "provider_id": 59, "line_id": null, "location_id": 4288, "mode": "Métro", "lat": 48.863065206708235, "lon": 2.3667112771319347, "lines": []}, {"name": "Blanche", "provider_id": 59, "line_id": null, "location_id": 15984, "mode": "Métro", "lat": 48.88376635447716, "lon": 2.3324843754343627, "lines": []}, {"name": "Stalingrad", "provider_id": 59, "line_id": null, "location_id": 11440, "mode": "Métro", "lat": 48.88425706569219, "lon": 2.3673740269354986, "lines": []}, {"name": "Sainte-Geneviève-des-Bois", "provider_id": 1, "line_id": null, "location_id": 21665, "mode": "Train", "lat": 48.65295347339148, "lon": 2.312960895970202, "lines": [{"name": "C", "mode": "RER", "background_color": "ffcc30", "text_color": "000000"}]}, {"name": "Crécy-la-Chapelle", "provider_id": 17, "line_id": null, "location_id": 12006, "mode": "Tramway", "lat": 48.85956357664495, "lon": 2.9051922787891398, "lines": []}, {"name": "Esbly", "provider_id": 17, "line_id": null, "location_id": 10449, "mode": "Tramway", "lat": 48.90274164027048, "lon": 2.809285919946294, "lines": []}, {"name": "Esbly", "provider_id": 1, "line_id": null, "location_id": 10449, "mode": "Tramway", "lat": 48.90274164027048, "lon": 2.809285919946294, "lines": []}, {"name": "Montry - Condé", "provider_id": 17, "line_id": null, "location_id": 11990, "mode": "Tramway", "lat": 48.89108472386098, "lon": 2.8255986508264512, "lines": []}, {"name": "Couilly - Saint-Germain - Quincy", "provider_id": 17, "line_id": null, "location_id": 11991, "mode": "Tramway", "lat": 48.88280440161705, "lon": 2.854152348003086, "lines": []}, {"name": "Villiers Montbarbin", "provider_id": 17, "line_id": null, "location_id": 12005, "mode": "Tramway", "lat": 48.86352745620307, "lon": 2.8825308779964818, "lines": []}, {"name": "Épluches", "provider_id": 1, "line_id": null, "location_id": 28849, "mode": "Train", "lat": 49.05504920289372, "lon": 2.122656896352011, "lines": [{"name": "H", "mode": "Transilien", "background_color": "84653d", "text_color": "ffffff"}]}, {"name": "Hôtel de Ville de la Courneuve", "provider_id": 59, "line_id": 11, "location_id": 20, "mode": "Tramway", "lat": 48.927457951131025, "lon": 2.392192785623727, "lines": []}, {"name": "Hôtel de Ville de la Courneuve", "provider_id": 59, "line_id": 11, "location_id": 32812, "mode": "Tramway", "lat": 48.927457951131025, "lon": 2.392192785623727, "lines": []}, {"name": "Hôtel de Ville de la Courneuve", "provider_id": 59, "line_id": 1389, "location_id": 711, "mode": "Tramway", "lat": 48.927457951131025, "lon": 2.392192785623727, "lines": []}, {"name": "Hôtel de Ville de la Courneuve", "provider_id": 59, "line_id": 1389, "location_id": 710, "mode": "Tramway", "lat": 48.927457951131025, "lon": 2.392192785623727, "lines": []}, {"name": "Hôtel de Ville de Bobigny", "provider_id": 59, "line_id": 11, "location_id": 32, "mode": "Tramway", "lat": 48.90653928768912, "lon": 2.443813957318875, "lines": []}, {"name": "Hôtel de Ville de Bobigny", "provider_id": 59, "line_id": 11, "location_id": 32801, "mode": "Tramway", "lat": 48.90653928768912, "lon": 2.443813957318875, "lines": []}, {"name": "Hôtel de Ville de Bobigny", "provider_id": 59, "line_id": 1389, "location_id": 708, "mode": "Tramway", "lat": 48.90653928768912, "lon": 2.443813957318875, "lines": []}, {"name": "Hôtel de Ville de Bobigny", "provider_id": 59, "line_id": 1389, "location_id": 709, "mode": "Tramway", "lat": 48.90653928768912, "lon": 2.443813957318875, "lines": []}, {"name": "Hôpital Delafontaine", "provider_id": 59, "line_id": 11, "location_id": 781, "mode": "Tramway", "lat": 48.933572266019965, "lon": 2.3711148673090303, "lines": []}, {"name": "Hôpital Delafontaine", "provider_id": 59, "line_id": 11, "location_id": 17, "mode": "Tramway", "lat": 48.933572266019965, "lon": 2.3711148673090303, "lines": []}, {"name": "Hôpital Delafontaine", "provider_id": 59, "line_id": 11, "location_id": 32815, "mode": "Tramway", "lat": 48.933572266019965, "lon": 2.3711148673090303, "lines": []}, {"name": "Hôpital Delafontaine", "provider_id": 59, "line_id": 1389, "location_id": 706, "mode": "Tramway", "lat": 48.933572266019965, "lon": 2.3711148673090303, "lines": []}, {"name": "Hôpital Delafontaine", "provider_id": 59, "line_id": 1389, "location_id": 707, "mode": "Tramway", "lat": 48.933572266019965, "lon": 2.3711148673090303, "lines": []}, {"name": "Hôpital Avicenne", "provider_id": 59, "line_id": 11, "location_id": 27, "mode": "Tramway", "lat": 48.91583018917087, "lon": 2.425007759393344, "lines": []}, {"name": "Hôpital Avicenne", "provider_id": 59, "line_id": 11, "location_id": 32806, "mode": "Tramway", "lat": 48.91583018917087, "lon": 2.425007759393344, "lines": []}, {"name": "Hôpital Avicenne", "provider_id": 59, "line_id": 1389, "location_id": 704, "mode": "Tramway", "lat": 48.91583018917087, "lon": 2.425007759393344, "lines": []}, {"name": "Hôpital Avicenne", "provider_id": 59, "line_id": 1389, "location_id": 705, "mode": "Tramway", "lat": 48.91583018917087, "lon": 2.425007759393344, "lines": []}, {"name": "Gaston Roulaud", "provider_id": 59, "line_id": 11, "location_id": 28, "mode": "Tramway", "lat": 48.91409308869877, "lon": 2.4312964920028564, "lines": []}, {"name": "Gaston Roulaud", "provider_id": 59, "line_id": 11, "location_id": 32805, "mode": "Tramway", "lat": 48.91409308869877, "lon": 2.4312964920028564, "lines": []}, {"name": "Gaston Roulaud", "provider_id": 59, "line_id": 1389, "location_id": 702, "mode": "Tramway", "lat": 48.91409308869877, "lon": 2.4312964920028564, "lines": []}, {"name": "Gaston Roulaud", "provider_id": 59, "line_id": 1389, "location_id": 703, "mode": "Tramway", "lat": 48.91409308869877, "lon": 2.4312964920028564, "lines": []}, {"name": "Saint-Denis", "provider_id": 59, "line_id": 11, "location_id": 672, "mode": "Tramway", "lat": 48.93564095920159, "lon": 2.3459738387606714, "lines": []}, {"name": "Saint-Denis", "provider_id": 59, "line_id": 11, "location_id": 777, "mode": "Tramway", "lat": 48.93564095920159, "lon": 2.3459738387606714, "lines": []}, {"name": "Saint-Denis", "provider_id": 59, "line_id": 18, "location_id": 325, "mode": "Tramway", "lat": 48.93564095920159, "lon": 2.3459738387606714, "lines": []}, {"name": "Saint-Denis", "provider_id": 59, "line_id": 18, "location_id": 33057, "mode": "Tramway", "lat": 48.93564095920159, "lon": 2.3459738387606714, "lines": []}, {"name": "Saint-Denis", "provider_id": 59, "line_id": 11, "location_id": 32820, "mode": "Tramway", "lat": 48.93564095920159, "lon": 2.3459738387606714, "lines": []}, {"name": "Saint-Denis", "provider_id": 59, "line_id": 1389, "location_id": 700, "mode": "Tramway", "lat": 48.93564095920159, "lon": 2.3459738387606714, "lines": []}, {"name": "Saint-Denis", "provider_id": 59, "line_id": 1389, "location_id": 701, "mode": "Tramway", "lat": 48.93564095920159, "lon": 2.3459738387606714, "lines": []}, {"name": "Gare de Noisy-le-Sec", "provider_id": 59, "line_id": 11, "location_id": 334, "mode": "Tramway", "lat": 48.895931144959555, "lon": 2.4603423964011273, "lines": []}, {"name": "Gare de Noisy-le-Sec", "provider_id": 59, "line_id": 1389, "location_id": 699, "mode": "Tramway", "lat": 48.895931144959555, "lon": 2.4603423964011273, "lines": []}, {"name": "Gare de Gennevilliers", "provider_id": 59, "line_id": 11, "location_id": 33247, "mode": "Tramway", "lat": 48.933452956784116, "lon": 2.3070798457982358, "lines": []}, {"name": "Gare de Gennevilliers", "provider_id": 59, "line_id": 11, "location_id": 463, "mode": "Tramway", "lat": 48.933452956784116, "lon": 2.3070798457982358, "lines": []}, {"name": "Gare de Gennevilliers", "provider_id": 59, "line_id": 1389, "location_id": 696, "mode": "Tramway", "lat": 48.933452956784116, "lon": 2.3070798457982358, "lines": []}, {"name": "Gare de Gennevilliers", "provider_id": 59, "line_id": 1389, "location_id": 697, "mode": "Tramway", "lat": 48.933452956784116, "lon": 2.3070798457982358, "lines": []}, {"name": "Escadrille Normandie-Niemen", "provider_id": 59, "line_id": 11, "location_id": 29, "mode": "Tramway", "lat": 48.912700784834186, "lon": 2.4354389842554505, "lines": []}, {"name": "Escadrille Normandie-Niemen", "provider_id": 59, "line_id": 11, "location_id": 32804, "mode": "Tramway", "lat": 48.912700784834186, "lon": 2.4354389842554505, "lines": []}, {"name": "Escadrille Normandie-Niemen", "provider_id": 59, "line_id": 1389, "location_id": 695, "mode": "Tramway", "lat": 48.912700784834186, "lon": 2.4354389842554505, "lines": []}, {"name": "Escadrille Normandie-Niemen", "provider_id": 59, "line_id": 1389, "location_id": 694, "mode": "Tramway", "lat": 48.912700784834186, "lon": 2.4354389842554505, "lines": []}, {"name": "Drancy - Avenir", "provider_id": 59, "line_id": 11, "location_id": 26, "mode": "Tramway", "lat": 48.91777783975033, "lon": 2.417699680651494, "lines": []}, {"name": "Drancy - Avenir", "provider_id": 59, "line_id": 11, "location_id": 32807, "mode": "Tramway", "lat": 48.91777783975033, "lon": 2.417699680651494, "lines": []}, {"name": "Drancy - Avenir", "provider_id": 59, "line_id": 1389, "location_id": 692, "mode": "Tramway", "lat": 48.91777783975033, "lon": 2.417699680651494, "lines": []}, {"name": "Drancy - Avenir", "provider_id": 59, "line_id": 1389, "location_id": 693, "mode": "Tramway", "lat": 48.91777783975033, "lon": 2.417699680651494, "lines": []}, {"name": "Danton", "provider_id": 59, "line_id": 11, "location_id": 23, "mode": "Tramway", "lat": 48.92271005458416, "lon": 2.4066180763280443, "lines": []}, {"name": "Danton", "provider_id": 59, "line_id": 11, "location_id": 32810, "mode": "Tramway", "lat": 48.92271005458416, "lon": 2.4066180763280443, "lines": []}, {"name": "Danton", "provider_id": 59, "line_id": 1389, "location_id": 691, "mode": "Tramway", "lat": 48.92271005458416, "lon": 2.4066180763280443, "lines": []}, {"name": "Danton", "provider_id": 59, "line_id": 1389, "location_id": 690, "mode": "Tramway", "lat": 48.92271005458416, "lon": 2.4066180763280443, "lines": []}, {"name": "Cosmonautes", "provider_id": 59, "line_id": 11, "location_id": 18, "mode": "Tramway", "lat": 48.93174311121472, "lon": 2.3781798447888205, "lines": []}, {"name": "Cosmonautes", "provider_id": 59, "line_id": 11, "location_id": 32814, "mode": "Tramway", "lat": 48.93174311121472, "lon": 2.3781798447888205, "lines": []}, {"name": "Cosmonautes", "provider_id": 59, "line_id": 1389, "location_id": 688, "mode": "Tramway", "lat": 48.93174311121472, "lon": 2.3781798447888205, "lines": []}, {"name": "Cosmonautes", "provider_id": 59, "line_id": 1389, "location_id": 689, "mode": "Tramway", "lat": 48.93174311121472, "lon": 2.3781798447888205, "lines": []}, {"name": "Cimetière de Saint-Denis", "provider_id": 59, "line_id": 11, "location_id": 16, "mode": "Tramway", "lat": 48.93640190025495, "lon": 2.363709552060509, "lines": []}, {"name": "Cimetière de Saint-Denis", "provider_id": 59, "line_id": 11, "location_id": 32816, "mode": "Tramway", "lat": 48.93640190025495, "lon": 2.363709552060509, "lines": []}, {"name": "Cimetière de Saint-Denis", "provider_id": 59, "line_id": 1389, "location_id": 686, "mode": "Tramway", "lat": 48.93640190025495, "lon": 2.363709552060509, "lines": []}, {"name": "Cimetière de Saint-Denis", "provider_id": 59, "line_id": 1389, "location_id": 687, "mode": "Tramway", "lat": 48.93640190025495, "lon": 2.363709552060509, "lines": []}, {"name": "Chemin des Reniers", "provider_id": 59, "line_id": 11, "location_id": 461, "mode": "Tramway", "lat": 48.93460104006559, "lon": 2.3214855695101004, "lines": []}, {"name": "Chemin des Reniers", "provider_id": 59, "line_id": 11, "location_id": 33196, "mode": "Tramway", "lat": 48.93460104006559, "lon": 2.3214855695101004, "lines": []}, {"name": "Chemin des Reniers", "provider_id": 59, "line_id": 1389, "location_id": 684, "mode": "Tramway", "lat": 48.93460104006559, "lon": 2.3214855695101004, "lines": []}, {"name": "Chemin des Reniers", "provider_id": 59, "line_id": 1389, "location_id": 685, "mode": "Tramway", "lat": 48.93460104006559, "lon": 2.3214855695101004, "lines": []}, {"name": "Bobigny - Pablo Picasso", "provider_id": 59, "line_id": 11, "location_id": 1, "mode": "Tramway", "lat": 48.90690869447109, "lon": 2.4498058275300045, "lines": []}, {"name": "Bobigny - Pablo Picasso", "provider_id": 59, "line_id": 11, "location_id": 32772, "mode": "Tramway", "lat": 48.90690869447109, "lon": 2.4498058275300045, "lines": []}, {"name": "Bobigny - Pablo Picasso", "provider_id": 59, "line_id": 11, "location_id": 32772, "mode": "Tramway", "lat": 48.90690869447109, "lon": 2.4498058275300045, "lines": []}, {"name": "Bobigny - Pablo Picasso", "provider_id": 59, "line_id": 1389, "location_id": 682, "mode": "Tramway", "lat": 48.90690869447109, "lon": 2.4498058275300045, "lines": []}, {"name": "Bobigny - Pablo Picasso", "provider_id": 59, "line_id": 1389, "location_id": 683, "mode": "Tramway", "lat": 48.90690869447109, "lon": 2.4498058275300045, "lines": []}, {"name": "Basilique de Saint-Denis", "provider_id": 59, "line_id": 11, "location_id": 15, "mode": "Tramway", "lat": 48.93805452966766, "lon": 2.3607885762092025, "lines": []}, {"name": "Basilique de Saint-Denis", "provider_id": 59, "line_id": 11, "location_id": 32817, "mode": "Tramway", "lat": 48.93805452966766, "lon": 2.3607885762092025, "lines": []}, {"name": "Basilique de Saint-Denis", "provider_id": 59, "line_id": 1389, "location_id": 681, "mode": "Tramway", "lat": 48.93805452966766, "lon": 2.3607885762092025, "lines": []}, {"name": "Basilique de Saint-Denis", "provider_id": 59, "line_id": 1389, "location_id": 680, "mode": "Tramway", "lat": 48.93805452966766, "lon": 2.3607885762092025, "lines": []}, {"name": "Basilique de Saint-Denis", "provider_id": 59, "line_id": 1389, "location_id": 680, "mode": "Tramway", "lat": 48.93805452966766, "lon": 2.3607885762092025, "lines": []}, {"name": "Auguste Delaune", "provider_id": 59, "line_id": 11, "location_id": 33094, "mode": "Tramway", "lat": 48.90669664911013, "lon": 2.4605240915865263, "lines": []}, {"name": "Auguste Delaune", "provider_id": 59, "line_id": 11, "location_id": 327, "mode": "Tramway", "lat": 48.90669664911013, "lon": 2.4605240915865263, "lines": []}, {"name": "Auguste Delaune", "provider_id": 59, "line_id": 1389, "location_id": 678, "mode": "Tramway", "lat": 48.90669664911013, "lon": 2.4605240915865263, "lines": []}, {"name": "Auguste Delaune", "provider_id": 59, "line_id": 1389, "location_id": 679, "mode": "Tramway", "lat": 48.90669664911013, "lon": 2.4605240915865263, "lines": []}, {"name": "Asnières - Quatre Routes", "provider_id": 59, "line_id": 11, "location_id": 33556, "mode": "Tramway", "lat": 48.92731638860962, "lon": 2.2745976186904264, "lines": []}, {"name": "Asnières - Quatre Routes", "provider_id": 59, "line_id": 1389, "location_id": 676, "mode": "Tramway", "lat": 48.92731638860962, "lon": 2.2745976186904264, "lines": []}, {"name": "Timbaud", "provider_id": 59, "line_id": 11, "location_id": 33242, "mode": "Tramway", "lat": 48.93311616896835, "lon": 2.300962563133119, "lines": []}, {"name": "Timbaud", "provider_id": 59, "line_id": 11, "location_id": 464, "mode": "Tramway", "lat": 48.93311616896835, "lon": 2.300962563133119, "lines": []}, {"name": "Timbaud", "provider_id": 59, "line_id": 1389, "location_id": 748, "mode": "Tramway", "lat": 48.93311616896835, "lon": 2.300962563133119, "lines": []}, {"name": "Timbaud", "provider_id": 59, "line_id": 1389, "location_id": 749, "mode": "Tramway", "lat": 48.93311616896835, "lon": 2.300962563133119, "lines": []}, {"name": "Théâtre Gérard Philipe", "provider_id": 59, "line_id": 11, "location_id": 13, "mode": "Tramway", "lat": 48.93750856861859, "lon": 2.3504004255265034, "lines": []}, {"name": "Théâtre Gérard Philipe", "provider_id": 59, "line_id": 11, "location_id": 32819, "mode": "Tramway", "lat": 48.93750856861859, "lon": 2.3504004255265034, "lines": []}, {"name": "Théâtre Gérard Philipe", "provider_id": 59, "line_id": 1389, "location_id": 746, "mode": "Tramway", "lat": 48.93750856861859, "lon": 2.3504004255265034, "lines": []}, {"name": "Théâtre Gérard Philipe", "provider_id": 59, "line_id": 1389, "location_id": 747, "mode": "Tramway", "lat": 48.93750856861859, "lon": 2.3504004255265034, "lines": []}, {"name": "Stade Géo André", "provider_id": 59, "line_id": 11, "location_id": 22, "mode": "Tramway", "lat": 48.92436468463498, "lon": 2.4020820530011533, "lines": []}, {"name": "Stade Géo André", "provider_id": 59, "line_id": 11, "location_id": 32811, "mode": "Tramway", "lat": 48.92436468463498, "lon": 2.4020820530011533, "lines": []}, {"name": "Stade Géo André", "provider_id": 59, "line_id": 1389, "location_id": 745, "mode": "Tramway", "lat": 48.92436468463498, "lon": 2.4020820530011533, "lines": []}, {"name": "Stade Géo André", "provider_id": 59, "line_id": 1389, "location_id": 744, "mode": "Tramway", "lat": 48.92436468463498, "lon": 2.4020820530011533, "lines": []}, {"name": "Pont de Bondy", "provider_id": 59, "line_id": 11, "location_id": 332, "mode": "Tramway", "lat": 48.90470184700275, "lon": 2.46995758008785, "lines": []}, {"name": "Pont de Bondy", "provider_id": 59, "line_id": 11, "location_id": 33103, "mode": "Tramway", "lat": 48.90470184700275, "lon": 2.46995758008785, "lines": []}, {"name": "Pont de Bondy", "provider_id": 59, "line_id": 1389, "location_id": 742, "mode": "Tramway", "lat": 48.90470184700275, "lon": 2.46995758008785, "lines": []}, {"name": "Pont de Bondy", "provider_id": 59, "line_id": 1389, "location_id": 743, "mode": "Tramway", "lat": 48.90470184700275, "lon": 2.46995758008785, "lines": []}, {"name": "Petit Noisy", "provider_id": 59, "line_id": 11, "location_id": 333, "mode": "Tramway", "lat": 48.90036942037014, "lon": 2.4653979819949856, "lines": []}, {"name": "Petit Noisy", "provider_id": 59, "line_id": 11, "location_id": 33104, "mode": "Tramway", "lat": 48.90036942037014, "lon": 2.4653979819949856, "lines": []}, {"name": "Petit Noisy", "provider_id": 59, "line_id": 1389, "location_id": 741, "mode": "Tramway", "lat": 48.90036942037014, "lon": 2.4653979819949856, "lines": []}, {"name": "Petit Noisy", "provider_id": 59, "line_id": 1389, "location_id": 740, "mode": "Tramway", "lat": 48.90036942037014, "lon": 2.4653979819949856, "lines": []}, {"name": "Parc des Chanteraines", "provider_id": 59, "line_id": 11, "location_id": 33243, "mode": "Tramway", "lat": 48.93394269130154, "lon": 2.3132634324451105, "lines": []}, {"name": "Parc des Chanteraines", "provider_id": 59, "line_id": 11, "location_id": 462, "mode": "Tramway", "lat": 48.93394269130154, "lon": 2.3132634324451105, "lines": []}, {"name": "Parc des Chanteraines", "provider_id": 59, "line_id": 1389, "location_id": 739, "mode": "Tramway", "lat": 48.93394269130154, "lon": 2.3132634324451105, "lines": []}, {"name": "Parc des Chanteraines", "provider_id": 59, "line_id": 1389, "location_id": 738, "mode": "Tramway", "lat": 48.93394269130154, "lon": 2.3132634324451105, "lines": []}, {"name": "Maurice Lachâtre", "provider_id": 59, "line_id": 11, "location_id": 25, "mode": "Tramway", "lat": 48.91917538870868, "lon": 2.4138359788310493, "lines": []}, {"name": "Maurice Lachâtre", "provider_id": 59, "line_id": 11, "location_id": 32808, "mode": "Tramway", "lat": 48.91917538870868, "lon": 2.4138359788310493, "lines": []}, {"name": "Maurice Lachâtre", "provider_id": 59, "line_id": 1389, "location_id": 737, "mode": "Tramway", "lat": 48.91917538870868, "lon": 2.4138359788310493, "lines": []}, {"name": "Maurice Lachâtre", "provider_id": 59, "line_id": 1389, "location_id": 736, "mode": "Tramway", "lat": 48.91917538870868, "lon": 2.4138359788310493, "lines": []}, {"name": "Marché de Saint-Denis", "provider_id": 59, "line_id": 15, "location_id": 484, "mode": "Tramway", "lat": 48.93877571530698, "lon": 2.35607700185045, "lines": []}, {"name": "Marché de Saint-Denis", "provider_id": 59, "line_id": 15, "location_id": 551, "mode": "Tramway", "lat": 48.93877571530698, "lon": 2.35607700185045, "lines": []}, {"name": "Marché de Saint-Denis", "provider_id": 59, "line_id": 11, "location_id": 14, "mode": "Tramway", "lat": 48.93877571530698, "lon": 2.35607700185045, "lines": []}, {"name": "Marché de Saint-Denis", "provider_id": 59, "line_id": 11, "location_id": 32818, "mode": "Tramway", "lat": 48.93877571530698, "lon": 2.35607700185045, "lines": []}, {"name": "Marché de Saint-Denis", "provider_id": 59, "line_id": 1389, "location_id": 734, "mode": "Tramway", "lat": 48.93877571530698, "lon": 2.35607700185045, "lines": []}, {"name": "Marché de Saint-Denis", "provider_id": 59, "line_id": 1389, "location_id": 735, "mode": "Tramway", "lat": 48.93877571530698, "lon": 2.35607700185045, "lines": []}, {"name": "Marché de Saint-Denis", "provider_id": 59, "line_id": 1389, "location_id": 922, "mode": "Tramway", "lat": 48.93877571530698, "lon": 2.35607700185045, "lines": []}, {"name": "Mairie de Villeneuve-la-Garenne", "provider_id": 59, "line_id": 11, "location_id": 33238, "mode": "Tramway", "lat": 48.93559937886431, "lon": 2.334337714346492, "lines": []}, {"name": "Mairie de Villeneuve-la-Garenne", "provider_id": 59, "line_id": 11, "location_id": 33547, "mode": "Tramway", "lat": 48.93559937886431, "lon": 2.334337714346492, "lines": []}, {"name": "Mairie de Villeneuve-la-Garenne", "provider_id": 59, "line_id": 11, "location_id": 459, "mode": "Tramway", "lat": 48.93559937886431, "lon": 2.334337714346492, "lines": []}, {"name": "Mairie de Villeneuve-la-Garenne", "provider_id": 59, "line_id": 1389, "location_id": 733, "mode": "Tramway", "lat": 48.93559937886431, "lon": 2.334337714346492, "lines": []}, {"name": "Mairie de Villeneuve-la-Garenne", "provider_id": 59, "line_id": 1389, "location_id": 732, "mode": "Tramway", "lat": 48.93559937886431, "lon": 2.334337714346492, "lines": []}, {"name": "L'Île-Saint-Denis", "provider_id": 59, "line_id": 11, "location_id": 33237, "mode": "Tramway", "lat": 48.93577727277445, "lon": 2.3396726181905225, "lines": []}, {"name": "L'Île-Saint-Denis", "provider_id": 59, "line_id": 11, "location_id": 458, "mode": "Tramway", "lat": 48.93577727277445, "lon": 2.3396726181905225, "lines": []}, {"name": "L'Île-Saint-Denis", "provider_id": 59, "line_id": 1389, "location_id": 715, "mode": "Tramway", "lat": 48.93577727277445, "lon": 2.3396726181905225, "lines": []}, {"name": "L'Île-Saint-Denis", "provider_id": 59, "line_id": 1389, "location_id": 714, "mode": "Tramway", "lat": 48.93577727277445, "lon": 2.3396726181905225, "lines": []}, {"name": "Libération", "provider_id": 59, "line_id": 11, "location_id": 31, "mode": "Tramway", "lat": 48.90693778847739, "lon": 2.438632417871954, "lines": []}, {"name": "Libération", "provider_id": 59, "line_id": 11, "location_id": 32802, "mode": "Tramway", "lat": 48.90693778847739, "lon": 2.438632417871954, "lines": []}, {"name": "Libération", "provider_id": 59, "line_id": 1389, "location_id": 730, "mode": "Tramway", "lat": 48.90693778847739, "lon": 2.438632417871954, "lines": []}, {"name": "Libération", "provider_id": 59, "line_id": 1389, "location_id": 731, "mode": "Tramway", "lat": 48.90693778847739, "lon": 2.438632417871954, "lines": []}, {"name": "Les Courtilles", "provider_id": 59, "line_id": 11, "location_id": 33239, "mode": "Tramway", "lat": 48.93019041793851, "lon": 2.2836953500500328, "lines": []}, {"name": "Les Courtilles", "provider_id": 59, "line_id": 11, "location_id": 793, "mode": "Tramway", "lat": 48.93019041793851, "lon": 2.2836953500500328, "lines": []}, {"name": "Les Courtilles", "provider_id": 59, "line_id": 1389, "location_id": 727, "mode": "Tramway", "lat": 48.93019041793851, "lon": 2.2836953500500328, "lines": []}, {"name": "Les Courtilles", "provider_id": 59, "line_id": 1389, "location_id": 726, "mode": "Tramway", "lat": 48.93019041793851, "lon": 2.2836953500500328, "lines": []}, {"name": "Le Village", "provider_id": 59, "line_id": 11, "location_id": 33241, "mode": "Tramway", "lat": 48.93335332614838, "lon": 2.2946260084912207, "lines": []}, {"name": "Le Village", "provider_id": 59, "line_id": 11, "location_id": 465, "mode": "Tramway", "lat": 48.93335332614838, "lon": 2.2946260084912207, "lines": []}, {"name": "Le Village", "provider_id": 59, "line_id": 1389, "location_id": 728, "mode": "Tramway", "lat": 48.93335332614838, "lon": 2.2946260084912207, "lines": []}, {"name": "Le Village", "provider_id": 59, "line_id": 1389, "location_id": 729, "mode": "Tramway", "lat": 48.93335332614838, "lon": 2.2946260084912207, "lines": []}, {"name": "Le Luth", "provider_id": 59, "line_id": 11, "location_id": 33240, "mode": "Tramway", "lat": 48.93180717797386, "lon": 2.2886481909036216, "lines": []}, {"name": "Le Luth", "provider_id": 59, "line_id": 11, "location_id": 467, "mode": "Tramway", "lat": 48.93180717797386, "lon": 2.2886481909036216, "lines": []}, {"name": "Le Luth", "provider_id": 59, "line_id": 1389, "location_id": 725, "mode": "Tramway", "lat": 48.93180717797386, "lon": 2.2886481909036216, "lines": []}, {"name": "Le Luth", "provider_id": 59, "line_id": 1389, "location_id": 724, "mode": "Tramway", "lat": 48.93180717797386, "lon": 2.2886481909036216, "lines": []}, {"name": "La Noue", "provider_id": 59, "line_id": 11, "location_id": 33246, "mode": "Tramway", "lat": 48.93499600986506, "lon": 2.3269403743070547, "lines": []}, {"name": "La Noue", "provider_id": 59, "line_id": 11, "location_id": 460, "mode": "Tramway", "lat": 48.93499600986506, "lon": 2.3269403743070547, "lines": []}, {"name": "La Noue", "provider_id": 59, "line_id": 1389, "location_id": 722, "mode": "Tramway", "lat": 48.93499600986506, "lon": 2.3269403743070547, "lines": []}, {"name": "La Noue", "provider_id": 59, "line_id": 1389, "location_id": 723, "mode": "Tramway", "lat": 48.93499600986506, "lon": 2.3269403743070547, "lines": []}, {"name": "La Ferme", "provider_id": 59, "line_id": 11, "location_id": 30, "mode": "Tramway", "lat": 48.90967530314552, "lon": 2.4374909799615168, "lines": []}, {"name": "La Ferme", "provider_id": 59, "line_id": 11, "location_id": 32803, "mode": "Tramway", "lat": 48.90967530314552, "lon": 2.4374909799615168, "lines": []}, {"name": "La Ferme", "provider_id": 59, "line_id": 1389, "location_id": 720, "mode": "Tramway", "lat": 48.90967530314552, "lon": 2.4374909799615168, "lines": []}, {"name": "La Ferme", "provider_id": 59, "line_id": 1389, "location_id": 721, "mode": "Tramway", "lat": 48.90967530314552, "lon": 2.4374909799615168, "lines": []}, {"name": "La Courneuve - Six Routes", "provider_id": 59, "line_id": 11, "location_id": 549, "mode": "Tramway", "lat": 48.92997396181583, "lon": 2.3847522658978697, "lines": []}, {"name": "La Courneuve - Six Routes", "provider_id": 59, "line_id": 11, "location_id": 19, "mode": "Tramway", "lat": 48.92997396181583, "lon": 2.3847522658978697, "lines": []}, {"name": "La Courneuve - Six Routes", "provider_id": 59, "line_id": 11, "location_id": 32813, "mode": "Tramway", "lat": 48.92997396181583, "lon": 2.3847522658978697, "lines": []}, {"name": "La Courneuve - Six Routes", "provider_id": 59, "line_id": 1389, "location_id": 718, "mode": "Tramway", "lat": 48.92997396181583, "lon": 2.3847522658978697, "lines": []}, {"name": "La Courneuve - Six Routes", "provider_id": 59, "line_id": 1389, "location_id": 719, "mode": "Tramway", "lat": 48.92997396181583, "lon": 2.3847522658978697, "lines": []}, {"name": "La Courneuve - 8 Mai 1945", "provider_id": 59, "line_id": 11, "location_id": 33318, "mode": "Tramway", "lat": 48.92080956961877, "lon": 2.410569811168021, "lines": []}, {"name": "La Courneuve - 8 Mai 1945", "provider_id": 59, "line_id": 11, "location_id": 775, "mode": "Tramway", "lat": 48.92080956961877, "lon": 2.410569811168021, "lines": []}, {"name": "La Courneuve - 8 Mai 1945", "provider_id": 59, "line_id": 11, "location_id": 24, "mode": "Tramway", "lat": 48.92080956961877, "lon": 2.410569811168021, "lines": []}, {"name": "La Courneuve - 8 Mai 1945", "provider_id": 59, "line_id": 11, "location_id": 32809, "mode": "Tramway", "lat": 48.92080956961877, "lon": 2.410569811168021, "lines": []}, {"name": "La Courneuve - 8 Mai 1945", "provider_id": 59, "line_id": 1389, "location_id": 716, "mode": "Tramway", "lat": 48.92080956961877, "lon": 2.410569811168021, "lines": []}, {"name": "La Courneuve - 8 Mai 1945", "provider_id": 59, "line_id": 1389, "location_id": 717, "mode": "Tramway", "lat": 48.92080956961877, "lon": 2.410569811168021, "lines": []}, {"name": "Jean Rostand", "provider_id": 59, "line_id": 11, "location_id": 585, "mode": "Tramway", "lat": 48.90781533621843, "lon": 2.4543596908763847, "lines": []}, {"name": "Jean Rostand", "provider_id": 59, "line_id": 11, "location_id": 33552, "mode": "Tramway", "lat": 48.90781533621843, "lon": 2.4543596908763847, "lines": []}, {"name": "Jean Rostand", "provider_id": 59, "line_id": 1389, "location_id": 713, "mode": "Tramway", "lat": 48.90781533621843, "lon": 2.4543596908763847, "lines": []}, {"name": "Jean Rostand", "provider_id": 59, "line_id": 1389, "location_id": 712, "mode": "Tramway", "lat": 48.90781533621843, "lon": 2.4543596908763847, "lines": []}, {"name": "Javel", "provider_id": 1, "line_id": null, "location_id": 32801, "mode": "Train", "lat": 48.84716158046346, "lon": 2.2780367935956596, "lines": [{"name": "C", "mode": "RER", "background_color": "ffcc30", "text_color": "000000"}]}, {"name": "Delphine Seyrig", "provider_id": 59, "line_id": 3, "location_id": 38, "mode": "Tramway", "lat": 48.893901392638, "lon": 2.3977196250377784, "lines": []}, {"name": "Delphine Seyrig", "provider_id": 59, "line_id": 3, "location_id": 32807, "mode": "Tramway", "lat": 48.893901392638, "lon": 2.3977196250377784, "lines": []}, {"name": "Brimborion", "provider_id": 59, "line_id": 12, "location_id": 109, "mode": "Tramway", "lat": 48.822124709927714, "lon": 2.231420171599085, "lines": []}, {"name": "Brimborion", "provider_id": 59, "line_id": 12, "location_id": 32977, "mode": "Tramway", "lat": 48.822124709927714, "lon": 2.231420171599085, "lines": []}, {"name": "Porte d'Issy", "provider_id": 59, "line_id": 12, "location_id": 546, "mode": "Tramway", "lat": 48.83171028300354, "lon": 2.2810094277325206, "lines": []}, {"name": "Porte d'Issy", "provider_id": 59, "line_id": 12, "location_id": 33313, "mode": "Tramway", "lat": 48.83171028300354, "lon": 2.2810094277325206, "lines": []}, {"name": "Garges - Sarcelles", "provider_id": 59, "line_id": 15, "location_id": 33226, "mode": "Tramway", "lat": 48.977157228016395, "lon": 2.3906553690146572, "lines": []}, {"name": "Bobigny Pablo Picasso", "provider_id": 59, "line_id": null, "location_id": 1728, "mode": "Métro", "lat": 48.906366938303925, "lon": 2.4491642949819816, "lines": []}, {"name": "Cité Universitaire", "provider_id": 59, "line_id": 13, "location_id": 695, "mode": "Tramway", "lat": 48.82035088158969, "lon": 2.33862842200975, "lines": []}, {"name": "Cité Universitaire", "provider_id": 59, "line_id": 13, "location_id": 33490, "mode": "Tramway", "lat": 48.82035088158969, "lon": 2.33862842200975, "lines": []}, {"name": "Cité Universitaire", "provider_id": 59, "line_id": null, "location_id": 7232, "mode": "Train", "lat": 48.82150600684167, "lon": 2.338857680977703, "lines": [{"name": "B", "mode": "RER", "background_color": "5091cb", "text_color": "ffffff"}]}, {"name": "Porte des Lilas", "provider_id": 59, "line_id": null, "location_id": 11808, "mode": "Métro", "lat": 48.87690001520383, "lon": 2.4067923266053337, "lines": []}, {"name": "Porte des Lilas", "provider_id": 59, "line_id": 3, "location_id": 30, "mode": "Tramway", "lat": 48.87669855554811, "lon": 2.406971869648545, "lines": []}, {"name": "Porte des Lilas", "provider_id": 59, "line_id": 3, "location_id": 32799, "mode": "Tramway", "lat": 48.87669855554811, "lon": 2.406971869648545, "lines": []}, {"name": "République - Marx Dormoy", "provider_id": 1, "line_id": null, "location_id": 11395, "mode": "Tramway", "lat": 48.90662880750828, "lon": 2.524083966506826, "lines": []}, {"name": "République - Marx Dormoy", "provider_id": 17, "line_id": null, "location_id": 11395, "mode": "Tramway", "lat": 48.90662880750828, "lon": 2.524083966506826, "lines": []}, {"name": "Le Bourget", "provider_id": 1, "line_id": null, "location_id": 26196, "mode": "Tramway", "lat": 48.93028748886068, "lon": 2.423387588137843, "lines": []}, {"name": "Le Bourget", "provider_id": 1, "line_id": null, "location_id": 26197, "mode": "Tramway", "lat": 48.93028748886068, "lon": 2.423387588137843, "lines": []}, {"name": "Dugny - La Courneuve", "provider_id": 1, "line_id": null, "location_id": 26198, "mode": "Tramway", "lat": 48.94392822942903, "lon": 2.4110928172699326, "lines": []}, {"name": "Dugny - La Courneuve", "provider_id": 1, "line_id": null, "location_id": 26199, "mode": "Tramway", "lat": 48.94392822942903, "lon": 2.4110928172699326, "lines": []}, {"name": "Stains la Cerisaie", "provider_id": 1, "line_id": null, "location_id": 26209, "mode": "Tramway", "lat": 48.95473095417472, "lon": 2.391778426268762, "lines": []}, {"name": "Stains la Cerisaie", "provider_id": 1, "line_id": null, "location_id": 26210, "mode": "Tramway", "lat": 48.95473095417472, "lon": 2.391778426268762, "lines": []}, {"name": "Villetaneuse Université", "provider_id": 59, "line_id": 18, "location_id": 33061, "mode": "Tramway", "lat": 48.95965335613152, "lon": 2.3421757797078224, "lines": []}, {"name": "Villetaneuse Université", "provider_id": 59, "line_id": 18, "location_id": 33127, "mode": "Tramway", "lat": 48.95965335613152, "lon": 2.3421757797078224, "lines": []}, {"name": "Villetaneuse Université", "provider_id": 1, "line_id": null, "location_id": 25689, "mode": "Tramway", "lat": 48.95965335613152, "lon": 2.3421757797078224, "lines": []}, {"name": "Villetaneuse Université", "provider_id": 1, "line_id": null, "location_id": 25690, "mode": "Tramway", "lat": 48.95965335613152, "lon": 2.3421757797078224, "lines": []}, {"name": "Épinay - Villetaneuse", "provider_id": 1, "line_id": null, "location_id": 25687, "mode": "Tramway", "lat": 48.959001027944254, "lon": 2.3283230136084656, "lines": []}, {"name": "Épinay - Villetaneuse", "provider_id": 1, "line_id": null, "location_id": 25688, "mode": "Tramway", "lat": 48.959001027944254, "lon": 2.3283230136084656, "lines": []}, {"name": "Remise à Jorelle", "provider_id": 1, "line_id": null, "location_id": 11361, "mode": "Tramway", "lat": 48.89308470595349, "lon": 2.4879630022583004, "lines": []}, {"name": "Remise à Jorelle", "provider_id": 17, "line_id": null, "location_id": 11361, "mode": "Tramway", "lat": 48.89308470595349, "lon": 2.4879630022583004, "lines": []}, {"name": "Les Coquetiers", "provider_id": 1, "line_id": null, "location_id": 11377, "mode": "Tramway", "lat": 48.892599556442285, "lon": 2.499778763575563, "lines": []}, {"name": "Les Coquetiers", "provider_id": 17, "line_id": null, "location_id": 11377, "mode": "Tramway", "lat": 48.892599556442285, "lon": 2.499778763575563, "lines": []}, {"name": "Hôpital de Montfermeil", "provider_id": 1, "line_id": null, "location_id": 11403, "mode": "Tramway", "lat": 48.90095563531034, "lon": 2.5708688351292563, "lines": []}, {"name": "Hôpital de Montfermeil", "provider_id": 17, "line_id": null, "location_id": 11403, "mode": "Tramway", "lat": 48.90095563531034, "lon": 2.5708688351292563, "lines": []}, {"name": "Arboretum", "provider_id": 1, "line_id": null, "location_id": 11402, "mode": "Tramway", "lat": 48.89792786614139, "lon": 2.561727794571104, "lines": []}, {"name": "Arboretum", "provider_id": 17, "line_id": null, "location_id": 11402, "mode": "Tramway", "lat": 48.89792786614139, "lon": 2.561727794571104, "lines": []}, {"name": "Notre-Dame-des-Anges", "provider_id": 1, "line_id": null, "location_id": 11401, "mode": "Tramway", "lat": 48.90092867240989, "lon": 2.556068933536934, "lines": []}, {"name": "Notre-Dame-des-Anges", "provider_id": 17, "line_id": null, "location_id": 11401, "mode": "Tramway", "lat": 48.90092867240989, "lon": 2.556068933536934, "lines": []}, {"name": "Clichy - Montfermeil", "provider_id": 1, "line_id": null, "location_id": 11400, "mode": "Tramway", "lat": 48.90457600945315, "lon": 2.555041988933698, "lines": []}, {"name": "Clichy - Montfermeil", "provider_id": 17, "line_id": null, "location_id": 11400, "mode": "Tramway", "lat": 48.90457600945315, "lon": 2.555041988933698, "lines": []}, {"name": "Romain Rolland", "provider_id": 1, "line_id": null, "location_id": 11399, "mode": "Tramway", "lat": 48.90474726151613, "lon": 2.547940030940688, "lines": []}, {"name": "Romain Rolland", "provider_id": 17, "line_id": null, "location_id": 11399, "mode": "Tramway", "lat": 48.90474726151613, "lon": 2.547940030940688, "lines": []}, {"name": "Clichy-sous-Bois - Mairie", "provider_id": 1, "line_id": null, "location_id": 11398, "mode": "Tramway", "lat": 48.907875451547625, "lon": 2.546391723337214, "lines": []}, {"name": "Clichy-sous-Bois - Mairie", "provider_id": 17, "line_id": null, "location_id": 11398, "mode": "Tramway", "lat": 48.907875451547625, "lon": 2.546391723337214, "lines": []}, {"name": "Maurice Audin", "provider_id": 1, "line_id": null, "location_id": 11397, "mode": "Tramway", "lat": 48.90845951026556, "lon": 2.5391969510123302, "lines": []}, {"name": "Maurice Audin", "provider_id": 17, "line_id": null, "location_id": 11397, "mode": "Tramway", "lat": 48.90845951026556, "lon": 2.5391969510123302, "lines": []}, {"name": "Léon Blum", "provider_id": 1, "line_id": null, "location_id": 11396, "mode": "Tramway", "lat": 48.908522736483604, "lon": 2.532306835538605, "lines": []}, {"name": "Léon Blum", "provider_id": 17, "line_id": null, "location_id": 11396, "mode": "Tramway", "lat": 48.908522736483604, "lon": 2.532306835538605, "lines": []}, {"name": "Rougemont Chanteloup", "provider_id": 1, "line_id": null, "location_id": 26260, "mode": "Tramway", "lat": 48.9309985340127, "lon": 2.514880267618491, "lines": []}, {"name": "Rougemont Chanteloup", "provider_id": 17, "line_id": null, "location_id": 26260, "mode": "Tramway", "lat": 48.9309985340127, "lon": 2.514880267618491, "lines": []}, {"name": "Freinville Sevran", "provider_id": 1, "line_id": null, "location_id": 11410, "mode": "Tramway", "lat": 48.92650570780331, "lon": 2.5191119152202375, "lines": []}, {"name": "Freinville Sevran", "provider_id": 17, "line_id": null, "location_id": 11410, "mode": "Tramway", "lat": 48.92650570780331, "lon": 2.5191119152202375, "lines": []}, {"name": "L'Abbaye", "provider_id": 1, "line_id": null, "location_id": 11409, "mode": "Tramway", "lat": 48.921813776255775, "lon": 2.5163373380707585, "lines": []}, {"name": "L'Abbaye", "provider_id": 17, "line_id": null, "location_id": 11409, "mode": "Tramway", "lat": 48.921813776255775, "lon": 2.5163373380707585, "lines": []}, {"name": "Lycée Henri Sellier", "provider_id": 1, "line_id": null, "location_id": 11394, "mode": "Tramway", "lat": 48.91596341993927, "lon": 2.51510228992044, "lines": []}, {"name": "Lycée Henri Sellier", "provider_id": 17, "line_id": null, "location_id": 11394, "mode": "Tramway", "lat": 48.91596341993927, "lon": 2.51510228992044, "lines": []}, {"name": "Gargan", "provider_id": 1, "line_id": null, "location_id": 11393, "mode": "Tramway", "lat": 48.907241322384294, "lon": 2.5164727477819198, "lines": []}, {"name": "Gargan", "provider_id": 17, "line_id": null, "location_id": 11393, "mode": "Tramway", "lat": 48.907241322384294, "lon": 2.5164727477819198, "lines": []}, {"name": "Les Pavillons-sous-Bois", "provider_id": 1, "line_id": null, "location_id": 11379, "mode": "Tramway", "lat": 48.90268153115974, "lon": 2.5119521287782933, "lines": []}, {"name": "Les Pavillons-sous-Bois", "provider_id": 17, "line_id": null, "location_id": 11379, "mode": "Tramway", "lat": 48.90268153115974, "lon": 2.5119521287782933, "lines": []}, {"name": "Allée de la Tour-Rendez-vous", "provider_id": 1, "line_id": null, "location_id": 11378, "mode": "Tramway", "lat": 48.897322271725216, "lon": 2.5066078373404506, "lines": []}, {"name": "Allée de la Tour-Rendez-vous", "provider_id": 17, "line_id": null, "location_id": 11378, "mode": "Tramway", "lat": 48.897322271725216, "lon": 2.5066078373404506, "lines": []}, {"name": "Gare de Lyon", "provider_id": 59, "line_id": null, "location_id": 4736, "mode": "Métro", "lat": 48.84500701664282, "lon": 2.3728376969225917, "lines": []}, {"name": "Gare de Lyon", "provider_id": 59, "line_id": null, "location_id": 4832, "mode": "Métro", "lat": 48.84500701664282, "lon": 2.3728376969225917, "lines": []}, {"name": "Gare de Lyon", "provider_id": 59, "line_id": null, "location_id": 4816, "mode": "Métro", "lat": 48.84500701664282, "lon": 2.3728376969225917, "lines": []}, {"name": "La Défense (Grande Arche)", "provider_id": 59, "line_id": 12, "location_id": 124, "mode": "Tramway", "lat": 48.893028598200964, "lon": 2.2374589996305936, "lines": []}, {"name": "La Défense (Grande Arche)", "provider_id": 59, "line_id": 12, "location_id": 32869, "mode": "Tramway", "lat": 48.893028598200964, "lon": 2.2374589996305936, "lines": []}, {"name": "La Défense (Grande Arche)", "provider_id": 59, "line_id": 12, "location_id": 32969, "mode": "Tramway", "lat": 48.893028598200964, "lon": 2.2374589996305936, "lines": []}, {"name": "La Défense (Grande Arche)", "provider_id": 59, "line_id": 12, "location_id": 9873, "mode": "Tramway", "lat": 48.893028598200964, "lon": 2.2374589996305936, "lines": []}, {"name": "Villejuif Paul Vaillant-Couturier", "provider_id": 59, "line_id": null, "location_id": 13440, "mode": "Métro", "lat": 48.796313077748636, "lon": 2.368263599494889, "lines": []}, {"name": "Les Agnettes", "provider_id": 59, "line_id": null, "location_id": 9776, "mode": "Métro", "lat": 48.923071934329926, "lon": 2.286209808268407, "lines": []}, {"name": "Sèvres - Babylone", "provider_id": 59, "line_id": null, "location_id": 1168, "mode": "Métro", "lat": 48.85125298, "lon": 2.3264957430698714, "lines": []}, {"name": "Strasbourg - Saint-Denis", "provider_id": 59, "line_id": null, "location_id": 5792, "mode": "Métro", "lat": 48.869509113525204, "lon": 2.354111319854006, "lines": []}, {"name": "Neuilly Porte Maillot", "provider_id": 1, "line_id": null, "location_id": 28161, "mode": "Train", "lat": 48.87834780404865, "lon": 2.284217509613705, "lines": [{"name": "E", "mode": "RER", "background_color": "b94e9a", "text_color": "ffffff"}, {"name": "C", "mode": "RER", "background_color": "ffcc30", "text_color": "000000"}]}, {"name": "Neuilly Porte Maillot", "provider_id": 1, "line_id": null, "location_id": 28172, "mode": "Train", "lat": 48.87834780404865, "lon": 2.284217509613705, "lines": [{"name": "E", "mode": "RER", "background_color": "b94e9a", "text_color": "ffffff"}, {"name": "C", "mode": "RER", "background_color": "ffcc30", "text_color": "000000"}]}, {"name": "Neuilly Porte Maillot", "provider_id": 59, "line_id": null, "location_id": 15376, "mode": "Train", "lat": 48.87834780404865, "lon": 2.284217509613705, "lines": [{"name": "E", "mode": "RER", "background_color": "b94e9a", "text_color": "ffffff"}, {"name": "C", "mode": "RER", "background_color": "ffcc30", "text_color": "000000"}]}, {"name": "Pierrefitte - Stains", "provider_id": 1, "line_id": null, "location_id": 26724, "mode": "Tramway", "lat": 48.96014842669123, "lon": 2.367331524885894, "lines": []}, {"name": "Pierrefitte - Stains", "provider_id": 1, "line_id": null, "location_id": 26725, "mode": "Tramway", "lat": 48.96014842669123, "lon": 2.367331524885894, "lines": []}, {"name": "Aéroport d’Orly (Terminaux 1-2-3)", "provider_id": 59, "line_id": null, "location_id": 14961, "mode": "Train", "lat": 48.72958766126619, "lon": 2.359519282032555, "lines": []}, {"name": "Pont de l'Alma", "provider_id": 1, "line_id": null, "location_id": 32770, "mode": "Train", "lat": 48.86247496310805, "lon": 2.3003592740110994, "lines": [{"name": "C", "mode": "RER", "background_color": "ffcc30", "text_color": "000000"}]}, {"name": "Aéroport d'Orly", "provider_id": 12, "line_id": null, "location_id": 13552, "mode": "Métro", "lat": 48.72767871853278, "lon": 2.362486148027287, "lines": []}, {"name": "Bondy", "provider_id": 1, "line_id": null, "location_id": 10340, "mode": "Tramway", "lat": 48.89378813291777, "lon": 2.4821459223255777, "lines": []}, {"name": "Bondy", "provider_id": 17, "line_id": null, "location_id": 10340, "mode": "Tramway", "lat": 48.89378813291777, "lon": 2.4821459223255777, "lines": []}, {"name": "Aulnay-sous-Bois", "provider_id": 1, "line_id": null, "location_id": 26246, "mode": "Tramway", "lat": 48.93193959380244, "lon": 2.496663917764884, "lines": []}, {"name": "Aulnay-sous-Bois", "provider_id": 17, "line_id": null, "location_id": 26246, "mode": "Tramway", "lat": 48.93193959380244, "lon": 2.496663917764884, "lines": []}, {"name": "La Défense", "provider_id": 1, "line_id": null, "location_id": 15429, "mode": "Train", "lat": 48.89222980156821, "lon": 2.238418596250407, "lines": [{"name": "E", "mode": "RER", "background_color": "b94e9a", "text_color": "ffffff"}, {"name": "A", "mode": "RER", "background_color": "eb2132", "text_color": "ffffff"}, {"name": "L", "mode": "Transilien", "background_color": "c4a4cc", "text_color": "000000"}, {"name": "U", "mode": "Transilien", "background_color": "b6134c", "text_color": "ffffff"}]}, {"name": "La Défense", "provider_id": 59, "line_id": null, "location_id": 8769, "mode": "Train", "lat": 48.89222980156821, "lon": 2.238418596250407, "lines": [{"name": "E", "mode": "RER", "background_color": "b94e9a", "text_color": "ffffff"}, {"name": "A", "mode": "RER", "background_color": "eb2132", "text_color": "ffffff"}, {"name": "L", "mode": "Transilien", "background_color": "c4a4cc", "text_color": "000000"}, {"name": "U", "mode": "Transilien", "background_color": "b6134c", "text_color": "ffffff"}]}, {"name": "La Défense", "provider_id": 59, "line_id": null, "location_id": 8770, "mode": "Train", "lat": 48.89222980156821, "lon": 2.238418596250407, "lines": [{"name": "E", "mode": "RER", "background_color": "b94e9a", "text_color": "ffffff"}, {"name": "A", "mode": "RER", "background_color": "eb2132", "text_color": "ffffff"}, {"name": "L", "mode": "Transilien", "background_color": "c4a4cc", "text_color": "000000"}, {"name": "U", "mode": "Transilien", "background_color": "b6134c", "text_color": "ffffff"}]}, {"name": "La Défense", "provider_id": 1, "line_id": null, "location_id": 15432, "mode": "Train", "lat": 48.89222980156821, "lon": 2.238418596250407, "lines": [{"name": "E", "mode": "RER", "background_color": "b94e9a", "text_color": "ffffff"}, {"name": "A", "mode": "RER", "background_color": "eb2132", "text_color": "ffffff"}, {"name": "L", "mode": "Transilien", "background_color": "c4a4cc", "text_color": "000000"}, {"name": "U", "mode": "Transilien", "background_color": "b6134c", "text_color": "ffffff"}]}, {"name": "La Défense", "provider_id": 59, "line_id": null, "location_id": 15024, "mode": "Train", "lat": 48.89222980156821, "lon": 2.238418596250407, "lines": [{"name": "E", "mode": "RER", "background_color": "b94e9a", "text_color": "ffffff"}, {"name": "A", "mode": "RER", "background_color": "eb2132", "text_color": "ffffff"}, {"name": "L", "mode": "Transilien", "background_color": "c4a4cc", "text_color": "000000"}, {"name": "U", "mode": "Transilien", "background_color": "b6134c", "text_color": "ffffff"}]}, {"name": "La Défense (Grande Arche)", "provider_id": 59, "line_id": null, "location_id": 15024, "mode": "Métro", "lat": 48.89190896292218, "lon": 2.238170972720827, "lines": []}, {"name": "La Défense (Grande Arche)", "provider_id": 59, "line_id": null, "location_id": 8769, "mode": "Métro", "lat": 48.89190896292218, "lon": 2.238170972720827, "lines": []}, {"name": "Nation", "provider_id": 59, "line_id": null, "location_id": 2720, "mode": "Métro", "lat": 48.848435338021204, "lon": 2.3958654629203697, "lines": []}, {"name": "Nation", "provider_id": 59, "line_id": null, "location_id": 2736, "mode": "Métro", "lat": 48.848435338021204, "lon": 2.3958654629203697, "lines": []}, {"name": "Nation", "provider_id": 59, "line_id": null, "location_id": 8209, "mode": "Métro", "lat": 48.848435338021204, "lon": 2.3958654629203697, "lines": []}, {"name": "Saint-Michel", "provider_id": 59, "line_id": null, "location_id": 528, "mode": "Métro", "lat": 48.853589506392254, "lon": 2.3439782280466415, "lines": []}, {"name": "Saint-Michel", "provider_id": 59, "line_id": null, "location_id": 1553, "mode": "Métro", "lat": 48.853589506392254, "lon": 2.3439782280466415, "lines": []}, {"name": "Châtelet", "provider_id": 59, "line_id": null, "location_id": 640, "mode": "Métro", "lat": 48.85828988249913, "lon": 2.346958495819831, "lines": []}, {"name": "Châtelet", "provider_id": 59, "line_id": null, "location_id": 672, "mode": "Métro", "lat": 48.85828988249913, "lon": 2.346958495819831, "lines": []}, {"name": "Chevilly-Larue​ (Marché International​)", "provider_id": 59, "line_id": null, "location_id": 13520, "mode": "Métro", "lat": 48.75848823845691, "lon": 2.36740855670282, "lines": []}, {"name": "Pierrefitte - Stains", "provider_id": 1, "line_id": null, "location_id": 26721, "mode": "Train", "lat": 48.962776285550994, "lon": 2.3703314284767742, "lines": [{"name": "D", "mode": "RER", "background_color": "008b5b", "text_color": "ffffff"}]}, {"name": "Suzanne Valadon", "provider_id": 59, "line_id": 15, "location_id": 33236, "mode": "Tramway", "lat": 48.95913165782129, "lon": 2.3587541649907102, "lines": []}, {"name": "Suzanne Valadon", "provider_id": 59, "line_id": 15, "location_id": 502, "mode": "Tramway", "lat": 48.95913165782129, "lon": 2.3587541649907102, "lines": []}, {"name": "Mairie de Pierrefitte", "provider_id": 59, "line_id": 15, "location_id": 33235, "mode": "Tramway", "lat": 48.96350992680975, "lon": 2.3602229567781374, "lines": []}, {"name": "Mairie de Pierrefitte", "provider_id": 59, "line_id": 15, "location_id": 503, "mode": "Tramway", "lat": 48.96350992680975, "lon": 2.3602229567781374, "lines": []}, {"name": "Alcide d'Orbigny", "provider_id": 59, "line_id": 15, "location_id": 33234, "mode": "Tramway", "lat": 48.965612394108454, "lon": 2.363263276907605, "lines": []}, {"name": "Alcide d'Orbigny", "provider_id": 59, "line_id": 15, "location_id": 504, "mode": "Tramway", "lat": 48.965612394108454, "lon": 2.363263276907605, "lines": []}, {"name": "Petit Pierrefitte", "provider_id": 59, "line_id": 15, "location_id": 33238, "mode": "Tramway", "lat": 48.9526932844536, "lon": 2.3579869785708207, "lines": []}, {"name": "Petit Pierrefitte", "provider_id": 59, "line_id": 15, "location_id": 500, "mode": "Tramway", "lat": 48.9526932844536, "lon": 2.3579869785708207, "lines": []}, {"name": "Jacques Prévert", "provider_id": 59, "line_id": 15, "location_id": 33233, "mode": "Tramway", "lat": 48.97085603654365, "lon": 2.3659923652998383, "lines": []}, {"name": "Jacques Prévert", "provider_id": 59, "line_id": 15, "location_id": 505, "mode": "Tramway", "lat": 48.97085603654365, "lon": 2.3659923652998383, "lines": []}, {"name": "Joncherolles", "provider_id": 59, "line_id": 15, "location_id": 33237, "mode": "Tramway", "lat": 48.95556374060406, "lon": 2.358320230153889, "lines": []}, {"name": "Joncherolles", "provider_id": 59, "line_id": 15, "location_id": 501, "mode": "Tramway", "lat": 48.95556374060406, "lon": 2.358320230153889, "lines": []}, {"name": "Butte Pinson (Parc Régional)", "provider_id": 59, "line_id": 15, "location_id": 33232, "mode": "Tramway", "lat": 48.97361707474168, "lon": 2.3660543089270996, "lines": []}, {"name": "Butte Pinson (Parc Régional)", "provider_id": 59, "line_id": 15, "location_id": 506, "mode": "Tramway", "lat": 48.97361707474168, "lon": 2.3660543089270996, "lines": []}, {"name": "Saint-Philippe-du-Roule", "provider_id": 59, "line_id": null, "location_id": 9296, "mode": "Métro", "lat": 48.872154234775294, "lon": 2.3100693884496097, "lines": []}, {"name": "Gif-sur-Yvette", "provider_id": 59, "line_id": null, "location_id": 9379, "mode": "Train", "lat": 48.69817557992029, "lon": 2.13649439862523, "lines": [{"name": "B", "mode": "RER", "background_color": "5091cb", "text_color": "ffffff"}]}, {"name": "Gare de Bellevue", "provider_id": 1, "line_id": null, "location_id": 30802, "mode": "Train", "lat": 48.8188729813851, "lon": 2.2299563222165655, "lines": [{"name": "N", "mode": "Transilien", "background_color": "00b297", "text_color": "ffffff"}]}, {"name": "Haussmann Saint-Lazare", "provider_id": 1, "line_id": null, "location_id": 25601, "mode": "Train", "lat": 48.8749988620012, "lon": 2.3286461797420928, "lines": [{"name": "E", "mode": "RER", "background_color": "b94e9a", "text_color": "ffffff"}]}, {"name": "Gare Saint-Lazare", "provider_id": 1, "line_id": null, "location_id": 15377, "mode": "Train", "lat": 48.87747568635213, "lon": 2.324438655239768, "lines": [{"name": "TER Normandie", "mode": "TER", "background_color": "aaaaaa", "text_color": "000000"}, {"name": "TER Normandie", "mode": "TER", "background_color": "aaaaaa", "text_color": "000000"}, {"name": "J", "mode": "Transilien", "background_color": "cec73d", "text_color": "000000"}, {"name": "L", "mode": "Transilien", "background_color": "c4a4cc", "text_color": "000000"}]}, {"name": "Bourg-la-Reine", "provider_id": 59, "line_id": null, "location_id": 9266, "mode": "Train", "lat": 48.78026436884245, "lon": 2.312278311834309, "lines": [{"name": "B", "mode": "RER", "background_color": "5091cb", "text_color": "ffffff"}]}, {"name": "Saint-Ouen-l'Aumône", "provider_id": 1, "line_id": null, "location_id": 27830, "mode": "Train", "lat": 49.04530690087294, "lon": 2.1052308578707937, "lines": [{"name": "C", "mode": "RER", "background_color": "ffcc30", "text_color": "000000"}, {"name": "H", "mode": "Transilien", "background_color": "84653d", "text_color": "ffffff"}]}, {"name": "Pontoise", "provider_id": 1, "line_id": null, "location_id": 27826, "mode": "Train", "lat": 49.04673337596686, "lon": 2.095785996842352, "lines": [{"name": "H", "mode": "Transilien", "background_color": "84653d", "text_color": "ffffff"}, {"name": "C", "mode": "RER", "background_color": "ffcc30", "text_color": "000000"}, {"name": "J", "mode": "Transilien", "background_color": "cec73d", "text_color": "000000"}]}, {"name": "Montigny - Beauchamp", "provider_id": 1, "line_id": null, "location_id": 27794, "mode": "Train", "lat": 49.00774411811703, "lon": 2.196515175604303, "lines": [{"name": "H", "mode": "Transilien", "background_color": "84653d", "text_color": "ffffff"}, {"name": "C", "mode": "RER", "background_color": "ffcc30", "text_color": "000000"}]}, {"name": "Saint-Gratien", "provider_id": 1, "line_id": null, "location_id": 28273, "mode": "Train", "lat": 48.96365827352943, "lon": 2.285777828585351, "lines": [{"name": "C", "mode": "RER", "background_color": "ffcc30", "text_color": "000000"}]}, {"name": "Épinay-sur-Seine", "provider_id": 1, "line_id": null, "location_id": 28257, "mode": "Train", "lat": 48.95382604164125, "lon": 2.3023883751223737, "lines": [{"name": "C", "mode": "RER", "background_color": "ffcc30", "text_color": "000000"}]}, {"name": "Saint-Ouen", "provider_id": 1, "line_id": null, "location_id": 28209, "mode": "Train", "lat": 48.90456082213366, "lon": 2.3226947294733717, "lines": [{"name": "C", "mode": "RER", "background_color": "ffcc30", "text_color": "000000"}]}, {"name": "Saint-Ouen", "provider_id": 59, "line_id": null, "location_id": 9808, "mode": "Train", "lat": 48.90456082213366, "lon": 2.3226947294733717, "lines": [{"name": "C", "mode": "RER", "background_color": "ffcc30", "text_color": "000000"}]}, {"name": "Invalides", "provider_id": 1, "line_id": null, "location_id": 32772, "mode": "Train", "lat": 48.86271300562112, "lon": 2.3126576509104404, "lines": [{"name": "C", "mode": "RER", "background_color": "ffcc30", "text_color": "000000"}]}, {"name": "Invalides", "provider_id": 59, "line_id": null, "location_id": 5264, "mode": "Train", "lat": 48.86271300562112, "lon": 2.3126576509104404, "lines": [{"name": "C", "mode": "RER", "background_color": "ffcc30", "text_color": "000000"}]}, {"name": "Charles de Gaulle - Etoile", "provider_id": 59, "line_id": null, "location_id": 8721, "mode": "Train", "lat": 48.8741727595654, "lon": 2.295231447641207, "lines": [{"name": "A", "mode": "RER", "background_color": "eb2132", "text_color": "ffffff"}]}, {"name": "Havre-Caumartin", "provider_id": 59, "line_id": null, "location_id": 3184, "mode": "Métro", "lat": 48.873611300134186, "lon": 2.327569871909059, "lines": []}, {"name": "Auber", "provider_id": 59, "line_id": null, "location_id": 3168, "mode": "Train", "lat": 48.8723488407182, "lon": 2.3296591495793595, "lines": [{"name": "A", "mode": "RER", "background_color": "eb2132", "text_color": "ffffff"}]}, {"name": "Bonne Nouvelle", "provider_id": 59, "line_id": null, "location_id": 5760, "mode": "Métro", "lat": 48.8705624180134, "lon": 2.3485019262628954, "lines": []}, {"name": "Grands Boulevards", "provider_id": 59, "line_id": null, "location_id": 5728, "mode": "Métro", "lat": 48.87150829359781, "lon": 2.3430299900331937, "lines": []}, {"name": "Aéroport CDG 1 (Terminal 3) - RER", "provider_id": 1, "line_id": null, "location_id": 36003, "mode": "Train", "lat": 49.00979397116339, "lon": 2.5614121946317394, "lines": [{"name": "B", "mode": "RER", "background_color": "5091cb", "text_color": "ffffff"}]}, {"name": "Aéroport CDG 1 (Terminal 3) - RER", "provider_id": 1, "line_id": null, "location_id": 36001, "mode": "Train", "lat": 49.00979397116339, "lon": 2.5614121946317394, "lines": [{"name": "B", "mode": "RER", "background_color": "5091cb", "text_color": "ffffff"}]}, {"name": "Aéroport d’Orly (Terminal 4)", "provider_id": 59, "line_id": null, "location_id": 14961, "mode": "Train", "lat": 48.72868913170477, "lon": 2.368129719217831, "lines": []}, {"name": "Porte de la Villette (Cité des Sciences et de l'industrie)", "provider_id": 59, "line_id": 3, "location_id": 42, "mode": "Tramway", "lat": 48.89745509169832, "lon": 2.386480111840996, "lines": []}, {"name": "Porte de la Villette (Cité des Sciences et de l'industrie)", "provider_id": 59, "line_id": 3, "location_id": 32811, "mode": "Tramway", "lat": 48.89745509169832, "lon": 2.386480111840996, "lines": []}, {"name": "Porte de la Villette (Cité des Sciences et de l'industrie)", "provider_id": 59, "line_id": 3, "location_id": 33230, "mode": "Tramway", "lat": 48.89745509169832, "lon": 2.386480111840996, "lines": []}, {"name": "Gare du Nord", "provider_id": 1, "line_id": null, "location_id": 25617, "mode": "Train", "lat": 48.882306858427164, "lon": 2.356693437528564, "lines": [{"name": "TER Hauts-de-France", "mode": "TER", "background_color": "aaaaaa", "text_color": "000000"}, {"name": "B", "mode": "RER", "background_color": "5091cb", "text_color": "ffffff"}, {"name": "H", "mode": "Transilien", "background_color": "84653d", "text_color": "ffffff"}, {"name": "K", "mode": "Transilien", "background_color": "9b9842", "text_color": "ffffff"}, {"name": "TER Hauts-de-France", "mode": "TER", "background_color": "aaaaaa", "text_color": "000000"}, {"name": "D", "mode": "RER", "background_color": "008b5b", "text_color": "ffffff"}]}, {"name": "Gare du Nord", "provider_id": 59, "line_id": null, "location_id": 11408, "mode": "Train", "lat": 48.882306858427164, "lon": 2.356693437528564, "lines": [{"name": "TER Hauts-de-France", "mode": "TER", "background_color": "aaaaaa", "text_color": "000000"}, {"name": "B", "mode": "RER", "background_color": "5091cb", "text_color": "ffffff"}, {"name": "H", "mode": "Transilien", "background_color": "84653d", "text_color": "ffffff"}, {"name": "K", "mode": "Transilien", "background_color": "9b9842", "text_color": "ffffff"}, {"name": "TER Hauts-de-France", "mode": "TER", "background_color": "aaaaaa", "text_color": "000000"}, {"name": "D", "mode": "RER", "background_color": "008b5b", "text_color": "ffffff"}]}, {"name": "Paris-Bercy Bourgogne - Pays d'Auvergne", "provider_id": 1, "line_id": null, "location_id": 20499, "mode": "Train", "lat": 48.838586201931776, "lon": 2.384209720351069, "lines": [{"name": "TER Centre - Val de Loire", "mode": "TER", "background_color": "aaaaaa", "text_color": "000000"}, {"name": "TER Bourgogne - Franche-Comté", "mode": "TER", "background_color": "aaaaaa", "text_color": "000000"}]}, {"name": "Saint-Denis - Pleyel", "provider_id": 9, "line_id": null, "location_id": 9840, "mode": "Métro", "lat": 48.918823307106635, "lon": 2.3458167760863593, "lines": []}, {"name": "Rosny-Bois-Perrier", "provider_id": 59, "line_id": null, "location_id": 11792, "mode": "Métro", "lat": 48.88304816142418, "lon": 2.4806095765806386, "lines": []}, {"name": "Coteaux Beauclair", "provider_id": 59, "line_id": null, "location_id": 11872, "mode": "Métro", "lat": 48.882104292949194, "lon": 2.467399052447674, "lines": []}, {"name": "La Dhuys", "provider_id": 59, "line_id": null, "location_id": 1760, "mode": "Métro", "lat": 48.87804725437978, "lon": 2.465136263752118, "lines": []}, {"name": "Montreuil - Hôpital", "provider_id": 59, "line_id": null, "location_id": 1744, "mode": "Métro", "lat": 48.87830133516503, "lon": 2.4546757233727896, "lines": []}, {"name": "Romainville-Carnot", "provider_id": 59, "line_id": null, "location_id": 11968, "mode": "Métro", "lat": 48.88363272274097, "lon": 2.440683634561955, "lines": []}, {"name": "Serge Gainsbourg", "provider_id": 59, "line_id": null, "location_id": 11888, "mode": "Métro", "lat": 48.88123055247182, "lon": 2.4271624158825427, "lines": []}, {"name": "Thiais - Orly​ (Pont de Rungis​)", "provider_id": 59, "line_id": null, "location_id": 13536, "mode": "Métro", "lat": 48.74684008073827, "lon": 2.372425496401616, "lines": []}, {"name": "L'Haÿ-les-Roses", "provider_id": 59, "line_id": null, "location_id": 13504, "mode": "Métro", "lat": 48.77532657414809, "lon": 2.355011621328936, "lines": []}, {"name": "Villejuif - Gustave Roussy", "provider_id": 8, "line_id": null, "location_id": 13488, "mode": "Métro", "lat": 48.79323850572634, "lon": 2.3492429736852274, "lines": []}, {"name": "Hôpital Bicêtre", "provider_id": 59, "line_id": null, "location_id": 13472, "mode": "Métro", "lat": 48.80995778589842, "lon": 2.349980741893058, "lines": []}, {"name": "Maison Blanche", "provider_id": 59, "line_id": null, "location_id": 7312, "mode": "Métro", "lat": 48.82167887944975, "lon": 2.3587013558896346, "lines": []}, {"name": "Maison Blanche", "provider_id": 59, "line_id": null, "location_id": 7296, "mode": "Métro", "lat": 48.82167887944975, "lon": 2.3587013558896346, "lines": []}, {"name": "Mairie des Lilas", "provider_id": 59, "line_id": null, "location_id": 11824, "mode": "Métro", "lat": 48.87970100535314, "lon": 2.4163237394488255, "lines": []}, {"name": "Saint-Michel Notre-Dame", "provider_id": 1, "line_id": null, "location_id": 20993, "mode": "Train", "lat": 48.85302379374017, "lon": 2.344959780029387, "lines": [{"name": "C", "mode": "RER", "background_color": "ffcc30", "text_color": "000000"}, {"name": "B", "mode": "RER", "background_color": "5091cb", "text_color": "ffffff"}]}, {"name": "Saint-Michel Notre-Dame", "provider_id": 59, "line_id": null, "location_id": 1553, "mode": "Train", "lat": 48.85302379374017, "lon": 2.344959780029387, "lines": [{"name": "C", "mode": "RER", "background_color": "ffcc30", "text_color": "000000"}, {"name": "B", "mode": "RER", "background_color": "5091cb", "text_color": "ffffff"}]}, {"name": "Cité", "provider_id": 59, "line_id": null, "location_id": 736, "mode": "Métro", "lat": 48.85492789580555, "lon": 2.3472967741257937, "lines": []}, {"name": "Hôtel de Ville", "provider_id": 59, "line_id": null, "location_id": 1040, "mode": "Métro", "lat": 48.85747657119991, "lon": 2.351745831807944, "lines": []}, {"name": "Hôtel de Ville", "provider_id": 59, "line_id": null, "location_id": 752, "mode": "Métro", "lat": 48.85747657119991, "lon": 2.351745831807944, "lines": []}, {"name": "Aéroport Charles de Gaulle 2 (Terminal 2)", "provider_id": 1, "line_id": null, "location_id": 36004, "mode": "Train", "lat": 49.00414554785043, "lon": 2.5709800477570233, "lines": [{"name": "B", "mode": "RER", "background_color": "5091cb", "text_color": "ffffff"}]}, {"name": "Persan - Beaumont", "provider_id": 1, "line_id": null, "location_id": 25795, "mode": "Train", "lat": 49.14758294460079, "lon": 2.2777997330536137, "lines": [{"name": "H", "mode": "Transilien", "background_color": "84653d", "text_color": "ffffff"}, {"name": "TER Hauts-de-France", "mode": "TER", "background_color": "aaaaaa", "text_color": "000000"}]}, {"name": "Persan - Beaumont", "provider_id": 1, "line_id": null, "location_id": 25796, "mode": "Train", "lat": 49.14758294460079, "lon": 2.2777997330536137, "lines": [{"name": "H", "mode": "Transilien", "background_color": "84653d", "text_color": "ffffff"}, {"name": "TER Hauts-de-France", "mode": "TER", "background_color": "aaaaaa", "text_color": "000000"}]}, {"name": "Nanteuil - Saâcy", "provider_id": 1, "line_id": null, "location_id": 10484, "mode": "Train", "lat": 48.97400193831619, "lon": 3.2194260927085296, "lines": [{"name": "P", "mode": "Transilien", "background_color": "f58f53", "text_color": "000000"}]}, {"name": "Nanteuil - Saâcy", "provider_id": 1, "line_id": null, "location_id": 10500, "mode": "Train", "lat": 48.97400193831619, "lon": 3.2194260927085296, "lines": [{"name": "P", "mode": "Transilien", "background_color": "f58f53", "text_color": "000000"}]}, {"name": "La Verrière", "provider_id": 1, "line_id": null, "location_id": 30913, "mode": "Train", "lat": 48.75517161328282, "lon": 1.9430570180641915, "lines": [{"name": "N", "mode": "Transilien", "background_color": "00b297", "text_color": "ffffff"}, {"name": "U", "mode": "Transilien", "background_color": "b6134c", "text_color": "ffffff"}]}, {"name": "La Verrière", "provider_id": 1, "line_id": null, "location_id": 30914, "mode": "Train", "lat": 48.75517161328282, "lon": 1.9430570180641915, "lines": [{"name": "N", "mode": "Transilien", "background_color": "00b297", "text_color": "ffffff"}, {"name": "U", "mode": "Transilien", "background_color": "b6134c", "text_color": "ffffff"}]}, {"name": "Mantes Station", "provider_id": 1, "line_id": null, "location_id": 16625, "mode": "Train", "lat": 48.98360892717881, "lon": 1.7151334567152094, "lines": [{"name": "J", "mode": "Transilien", "background_color": "cec73d", "text_color": "000000"}]}, {"name": "Mantes Station", "provider_id": 1, "line_id": null, "location_id": 16641, "mode": "Train", "lat": 48.98360892717881, "lon": 1.7151334567152094, "lines": [{"name": "J", "mode": "Transilien", "background_color": "cec73d", "text_color": "000000"}]}, {"name": "Mantes-la-Jolie", "provider_id": 1, "line_id": null, "location_id": 16626, "mode": "Train", "lat": 48.989295021419515, "lon": 1.7038368248563478, "lines": [{"name": "TER Normandie", "mode": "TER", "background_color": "aaaaaa", "text_color": "000000"}, {"name": "TER Normandie", "mode": "TER", "background_color": "aaaaaa", "text_color": "000000"}, {"name": "J", "mode": "Transilien", "background_color": "cec73d", "text_color": "000000"}, {"name": "N", "mode": "Transilien", "background_color": "00b297", "text_color": "ffffff"}]}, {"name": "Mantes-la-Jolie", "provider_id": 1, "line_id": null, "location_id": 16642, "mode": "Train", "lat": 48.989295021419515, "lon": 1.7038368248563478, "lines": [{"name": "TER Normandie", "mode": "TER", "background_color": "aaaaaa", "text_color": "000000"}, {"name": "TER Normandie", "mode": "TER", "background_color": "aaaaaa", "text_color": "000000"}, {"name": "J", "mode": "Transilien", "background_color": "cec73d", "text_color": "000000"}, {"name": "N", "mode": "Transilien", "background_color": "00b297", "text_color": "ffffff"}]}, {"name": "Champ de Courses d'Enghien", "provider_id": 1, "line_id": null, "location_id": 25715, "mode": "Train", "lat": 48.979694919730825, "lon": 2.291148632256432, "lines": [{"name": "H", "mode": "Transilien", "background_color": "84653d", "text_color": "ffffff"}]}, {"name": "Champ de Courses d'Enghien", "provider_id": 1, "line_id": null, "location_id": 25714, "mode": "Train", "lat": 48.979694919730825, "lon": 2.291148632256432, "lines": [{"name": "H", "mode": "Transilien", "background_color": "84653d", "text_color": "ffffff"}]}, {"name": "Les Boullereaux Champigny", "provider_id": 1, "line_id": null, "location_id": 10866, "mode": "Train", "lat": 48.82486398816197, "lon": 2.511990843607618, "lines": [{"name": "E", "mode": "RER", "background_color": "b94e9a", "text_color": "ffffff"}]}, {"name": "Les Boullereaux Champigny", "provider_id": 1, "line_id": null, "location_id": 10865, "mode": "Train", "lat": 48.82486398816197, "lon": 2.511990843607618, "lines": [{"name": "E", "mode": "RER", "background_color": "b94e9a", "text_color": "ffffff"}]}, {"name": "Le Chénay Gagny", "provider_id": 1, "line_id": null, "location_id": 10385, "mode": "Train", "lat": 48.8771591253828, "lon": 2.55277249086463, "lines": [{"name": "P", "mode": "Transilien", "background_color": "f58f53", "text_color": "000000"}, {"name": "E", "mode": "RER", "background_color": "b94e9a", "text_color": "ffffff"}]}, {"name": "Le Chénay Gagny", "provider_id": 1, "line_id": null, "location_id": 10386, "mode": "Train", "lat": 48.8771591253828, "lon": 2.55277249086463, "lines": [{"name": "P", "mode": "Transilien", "background_color": "f58f53", "text_color": "000000"}, {"name": "E", "mode": "RER", "background_color": "b94e9a", "text_color": "ffffff"}]}, {"name": "Saint-Denis", "provider_id": 1, "line_id": null, "location_id": 25684, "mode": "Train", "lat": 48.93482889939617, "lon": 2.3454790049873284, "lines": [{"name": "D", "mode": "RER", "background_color": "008b5b", "text_color": "ffffff"}, {"name": "H", "mode": "Transilien", "background_color": "84653d", "text_color": "ffffff"}]}, {"name": "Saint-Denis", "provider_id": 1, "line_id": null, "location_id": 25681, "mode": "Train", "lat": 48.93482889939617, "lon": 2.3454790049873284, "lines": [{"name": "D", "mode": "RER", "background_color": "008b5b", "text_color": "ffffff"}, {"name": "H", "mode": "Transilien", "background_color": "84653d", "text_color": "ffffff"}]}, {"name": "Montgeron - Crosne", "provider_id": 1, "line_id": null, "location_id": 22161, "mode": "Train", "lat": 48.70871108366715, "lon": 2.461377446437224, "lines": [{"name": "D", "mode": "RER", "background_color": "008b5b", "text_color": "ffffff"}]}, {"name": "Montgeron - Crosne", "provider_id": 1, "line_id": null, "location_id": 22162, "mode": "Train", "lat": 48.70871108366715, "lon": 2.461377446437224, "lines": [{"name": "D", "mode": "RER", "background_color": "008b5b", "text_color": "ffffff"}]}, {"name": "Le Coudray-Montceaux", "provider_id": 1, "line_id": null, "location_id": 22738, "mode": "Train", "lat": 48.56619819315809, "lon": 2.492424499497774, "lines": [{"name": "D", "mode": "RER", "background_color": "008b5b", "text_color": "ffffff"}]}, {"name": "Le Coudray-Montceaux", "provider_id": 1, "line_id": null, "location_id": 22786, "mode": "Train", "lat": 48.56619819315809, "lon": 2.492424499497774, "lines": [{"name": "D", "mode": "RER", "background_color": "008b5b", "text_color": "ffffff"}]}, {"name": "Brunoy", "provider_id": 1, "line_id": null, "location_id": 22178, "mode": "Train", "lat": 48.6989144753069, "lon": 2.5068503123113692, "lines": [{"name": "D", "mode": "RER", "background_color": "008b5b", "text_color": "ffffff"}]}, {"name": "Brunoy", "provider_id": 1, "line_id": null, "location_id": 22177, "mode": "Train", "lat": 48.6989144753069, "lon": 2.5068503123113692, "lines": [{"name": "D", "mode": "RER", "background_color": "008b5b", "text_color": "ffffff"}]}, {"name": "Boigneville", "provider_id": 1, "line_id": null, "location_id": 20756, "mode": "Train", "lat": 48.34120863250762, "lon": 2.378618440416535, "lines": [{"name": "D", "mode": "RER", "background_color": "008b5b", "text_color": "ffffff"}]}, {"name": "Boigneville", "provider_id": 1, "line_id": null, "location_id": 20754, "mode": "Train", "lat": 48.34120863250762, "lon": 2.378618440416535, "lines": [{"name": "D", "mode": "RER", "background_color": "008b5b", "text_color": "ffffff"}]}, {"name": "Viroflay Rive Gauche", "provider_id": 1, "line_id": null, "location_id": 30819, "mode": "Train", "lat": 48.80066552145506, "lon": 2.17158260741522, "lines": [{"name": "N", "mode": "Transilien", "background_color": "00b297", "text_color": "ffffff"}, {"name": "C", "mode": "RER", "background_color": "ffcc30", "text_color": "000000"}]}, {"name": "Viroflay Rive Gauche", "provider_id": 1, "line_id": null, "location_id": 30818, "mode": "Train", "lat": 48.80066552145506, "lon": 2.17158260741522, "lines": [{"name": "N", "mode": "Transilien", "background_color": "00b297", "text_color": "ffffff"}, {"name": "C", "mode": "RER", "background_color": "ffcc30", "text_color": "000000"}]}, {"name": "Saint-Martin d'Étampes", "provider_id": 1, "line_id": null, "location_id": 21746, "mode": "Train", "lat": 48.42748765080827, "lon": 2.1452588313071645, "lines": [{"name": "C", "mode": "RER", "background_color": "ffcc30", "text_color": "000000"}]}, {"name": "Saint-Martin d'Étampes", "provider_id": 1, "line_id": null, "location_id": 21762, "mode": "Train", "lat": 48.42748765080827, "lon": 2.1452588313071645, "lines": [{"name": "C", "mode": "RER", "background_color": "ffcc30", "text_color": "000000"}]}, {"name": "Étampes", "provider_id": 1, "line_id": null, "location_id": 21745, "mode": "Train", "lat": 48.437062675829104, "lon": 2.159819133907717, "lines": [{"name": "C", "mode": "RER", "background_color": "ffcc30", "text_color": "000000"}, {"name": "TER Centre - Val-de-Loire", "mode": "TER", "background_color": "aaaaaa", "text_color": "000000"}]}, {"name": "Étampes", "provider_id": 1, "line_id": null, "location_id": 21761, "mode": "Train", "lat": 48.437062675829104, "lon": 2.159819133907717, "lines": [{"name": "C", "mode": "RER", "background_color": "ffcc30", "text_color": "000000"}, {"name": "TER Centre - Val-de-Loire", "mode": "TER", "background_color": "aaaaaa", "text_color": "000000"}]}, {"name": "Sevran - Livry", "provider_id": 1, "line_id": null, "location_id": 26257, "mode": "Train", "lat": 48.93640164880272, "lon": 2.5352889927291447, "lines": [{"name": "B", "mode": "RER", "background_color": "5091cb", "text_color": "ffffff"}]}, {"name": "Sevran - Livry", "provider_id": 1, "line_id": null, "location_id": 26258, "mode": "Train", "lat": 48.93640164880272, "lon": 2.5352889927291447, "lines": [{"name": "B", "mode": "RER", "background_color": "5091cb", "text_color": "ffffff"}]}, {"name": "Sevran Beaudottes", "provider_id": 1, "line_id": null, "location_id": 35985, "mode": "Train", "lat": 48.947002365046444, "lon": 2.5247262164471342, "lines": [{"name": "B", "mode": "RER", "background_color": "5091cb", "text_color": "ffffff"}]}, {"name": "Sevran Beaudottes", "provider_id": 1, "line_id": null, "location_id": 35986, "mode": "Train", "lat": 48.947002365046444, "lon": 2.5247262164471342, "lines": [{"name": "B", "mode": "RER", "background_color": "5091cb", "text_color": "ffffff"}]}, {"name": "Mitry - Claye", "provider_id": 1, "line_id": null, "location_id": 26289, "mode": "Train", "lat": 48.9757479508066, "lon": 2.64223413697366, "lines": [{"name": "B", "mode": "RER", "background_color": "5091cb", "text_color": "ffffff"}, {"name": "K", "mode": "Transilien", "background_color": "9b9842", "text_color": "ffffff"}]}, {"name": "Mitry - Claye", "provider_id": 1, "line_id": null, "location_id": 26290, "mode": "Train", "lat": 48.9757479508066, "lon": 2.64223413697366, "lines": [{"name": "B", "mode": "RER", "background_color": "5091cb", "text_color": "ffffff"}, {"name": "K", "mode": "Transilien", "background_color": "9b9842", "text_color": "ffffff"}]}, {"name": "Le Bourget", "provider_id": 1, "line_id": null, "location_id": 26194, "mode": "Train", "lat": 48.930744340383285, "lon": 2.425825637815098, "lines": [{"name": "B", "mode": "RER", "background_color": "5091cb", "text_color": "ffffff"}]}, {"name": "Le Bourget", "provider_id": 1, "line_id": null, "location_id": 26193, "mode": "Train", "lat": 48.930744340383285, "lon": 2.425825637815098, "lines": [{"name": "B", "mode": "RER", "background_color": "5091cb", "text_color": "ffffff"}]}, {"name": "La Plaine Stade de France", "provider_id": 1, "line_id": null, "location_id": 26181, "mode": "Train", "lat": 48.918076675621016, "lon": 2.362459916604931, "lines": [{"name": "B", "mode": "RER", "background_color": "5091cb", "text_color": "ffffff"}]}, {"name": "La Plaine Stade de France", "provider_id": 1, "line_id": null, "location_id": 26177, "mode": "Train", "lat": 48.918076675621016, "lon": 2.362459916604931, "lines": [{"name": "B", "mode": "RER", "background_color": "5091cb", "text_color": "ffffff"}]}, {"name": "La Courneuve - Aubervilliers", "provider_id": 1, "line_id": null, "location_id": 26179, "mode": "Train", "lat": 48.92429743203912, "lon": 2.3861140570949475, "lines": [{"name": "B", "mode": "RER", "background_color": "5091cb", "text_color": "ffffff"}]}, {"name": "La Courneuve - Aubervilliers", "provider_id": 1, "line_id": null, "location_id": 26178, "mode": "Train", "lat": 48.92429743203912, "lon": 2.3861140570949475, "lines": [{"name": "B", "mode": "RER", "background_color": "5091cb", "text_color": "ffffff"}]}, {"name": "Nanterre-La-Folie", "provider_id": 1, "line_id": null, "location_id": 16475, "mode": "Train", "lat": 48.89758132477413, "lon": 2.226568794458685, "lines": [{"name": "E", "mode": "RER", "background_color": "b94e9a", "text_color": "ffffff"}]}, {"name": "Aimé Césaire", "provider_id": 59, "line_id": null, "location_id": 1552, "mode": "Métro", "lat": 48.90841035526346, "lon": 2.378083420499512, "lines": []}, {"name": "Charles de Gaulle - Etoile", "provider_id": 59, "line_id": null, "location_id": 9408, "mode": "Métro", "lat": 48.87435324613235, "lon": 2.2953364375980567, "lines": []}, {"name": "Palaiseau", "provider_id": 59, "line_id": null, "location_id": 9329, "mode": "Train", "lat": 48.71686524330365, "lon": 2.2455842955437597, "lines": [{"name": "B", "mode": "RER", "background_color": "5091cb", "text_color": "ffffff"}]}, {"name": "Courcelle-sur-Yvette", "provider_id": 59, "line_id": null, "location_id": 9380, "mode": "Train", "lat": 48.70131367727703, "lon": 2.097722386795541, "lines": [{"name": "B", "mode": "RER", "background_color": "5091cb", "text_color": "ffffff"}]}, {"name": "La Hacquinière", "provider_id": 59, "line_id": null, "location_id": 9378, "mode": "Train", "lat": 48.69529954845247, "lon": 2.1516106103390045, "lines": [{"name": "B", "mode": "RER", "background_color": "5091cb", "text_color": "ffffff"}]}, {"name": "Fontenay-sous-Bois", "provider_id": 59, "line_id": null, "location_id": 8226, "mode": "Train", "lat": 48.84378859648592, "lon": 2.463537806527943, "lines": [{"name": "A", "mode": "RER", "background_color": "eb2132", "text_color": "ffffff"}]}, {"name": "Sceaux", "provider_id": 59, "line_id": null, "location_id": 14401, "mode": "Train", "lat": 48.781307920937515, "lon": 2.29792821594393, "lines": [{"name": "B", "mode": "RER", "background_color": "5091cb", "text_color": "ffffff"}]}, {"name": "La Croix de Berny", "provider_id": 59, "line_id": null, "location_id": 9282, "mode": "Train", "lat": 48.76171816323693, "lon": 2.3042107053612133, "lines": [{"name": "B", "mode": "RER", "background_color": "5091cb", "text_color": "ffffff"}]}, {"name": "Champigny", "provider_id": 59, "line_id": null, "location_id": 8289, "mode": "Train", "lat": 48.80682309456138, "lon": 2.510538043646919, "lines": [{"name": "A", "mode": "RER", "background_color": "eb2132", "text_color": "ffffff"}]}, {"name": "Châtelet les Halles", "provider_id": 59, "line_id": null, "location_id": 672, "mode": "Train", "lat": 48.861745031913244, "lon": 2.34697651043533, "lines": [{"name": "D", "mode": "RER", "background_color": "008b5b", "text_color": "ffffff"}, {"name": "A", "mode": "RER", "background_color": "eb2132", "text_color": "ffffff"}, {"name": "B", "mode": "RER", "background_color": "5091cb", "text_color": "ffffff"}]}, {"name": "Saint-Rémy-lès-Chevreuse", "provider_id": 59, "line_id": null, "location_id": 9381, "mode": "Train", "lat": 48.70273269647272, "lon": 2.071385742904064, "lines": [{"name": "B", "mode": "RER", "background_color": "5091cb", "text_color": "ffffff"}]}, {"name": "Nogent-sur-Marne", "provider_id": 59, "line_id": null, "location_id": 8241, "mode": "Train", "lat": 48.83430653850342, "lon": 2.471683791180998, "lines": [{"name": "A", "mode": "RER", "background_color": "eb2132", "text_color": "ffffff"}]}, {"name": "Val de Fontenay", "provider_id": 1, "line_id": null, "location_id": 10835, "mode": "Train", "lat": 48.85424654032026, "lon": 2.4890536307751616, "lines": [{"name": "A", "mode": "RER", "background_color": "eb2132", "text_color": "ffffff"}, {"name": "E", "mode": "RER", "background_color": "b94e9a", "text_color": "ffffff"}]}, {"name": "Val de Fontenay", "provider_id": 59, "line_id": null, "location_id": 13393, "mode": "Train", "lat": 48.85424654032026, "lon": 2.4890536307751616, "lines": [{"name": "A", "mode": "RER", "background_color": "eb2132", "text_color": "ffffff"}, {"name": "E", "mode": "RER", "background_color": "b94e9a", "text_color": "ffffff"}]}, {"name": "Massy - Verrières", "provider_id": 1, "line_id": null, "location_id": 38593, "mode": "Train", "lat": 48.73495795521141, "lon": 2.273978779055319, "lines": [{"name": "C", "mode": "RER", "background_color": "ffcc30", "text_color": "000000"}, {"name": "B", "mode": "RER", "background_color": "5091cb", "text_color": "ffffff"}]}, {"name": "Massy - Verrières", "provider_id": 59, "line_id": null, "location_id": 9313, "mode": "Train", "lat": 48.73495795521141, "lon": 2.273978779055319, "lines": [{"name": "C", "mode": "RER", "background_color": "ffcc30", "text_color": "000000"}, {"name": "B", "mode": "RER", "background_color": "5091cb", "text_color": "ffffff"}]}, {"name": "Rueil-Malmaison", "provider_id": 59, "line_id": null, "location_id": 8801, "mode": "Train", "lat": 48.88767250064627, "lon": 2.1723664178971847, "lines": [{"name": "A", "mode": "RER", "background_color": "eb2132", "text_color": "ffffff"}]}, {"name": "Bussy-Saint-Georges", "provider_id": 59, "line_id": null, "location_id": 13489, "mode": "Train", "lat": 48.83671337078137, "lon": 2.7103828395096956, "lines": [{"name": "A", "mode": "RER", "background_color": "eb2132", "text_color": "ffffff"}]}, {"name": "Noisiel", "provider_id": 59, "line_id": null, "location_id": 13473, "mode": "Train", "lat": 48.84351408493867, "lon": 2.616660606000051, "lines": [{"name": "A", "mode": "RER", "background_color": "eb2132", "text_color": "ffffff"}]}, {"name": "Sucy - Bonneuil", "provider_id": 59, "line_id": null, "location_id": 8321, "mode": "Train", "lat": 48.77206393781, "lon": 2.5074994611650823, "lines": [{"name": "A", "mode": "RER", "background_color": "eb2132", "text_color": "ffffff"}]}, {"name": "Noisy - Champs", "provider_id": 59, "line_id": null, "location_id": 13441, "mode": "Train", "lat": 48.8428961959907, "lon": 2.580103342831972, "lines": [{"name": "A", "mode": "RER", "background_color": "eb2132", "text_color": "ffffff"}]}, {"name": "Lozère", "provider_id": 59, "line_id": null, "location_id": 9345, "mode": "Train", "lat": 48.70591241362704, "lon": 2.212717641845953, "lines": [{"name": "B", "mode": "RER", "background_color": "5091cb", "text_color": "ffffff"}]},